gmaps_url,company,rating,category,phone,website,claim_status,latitude,longitude,updatedAt
"https://www.google.ca/maps/place/NB+Handyman+-+Bathroom+Renovation,+Tiling,+Retaining+Wall,+Pool+Maintenance/data=!4m7!3m6!1s0x6b0d532f21d111cd:0xf8f1830ff3a84fd0!8m2!3d-33.6448221!4d151.3148428!16s%2Fg%2F11pwslnfmn!19sChIJzRHRIS9TDWsR0E-o8w-D8fg?authuser=0&hl=en&rclk=1","NB Handyman - Bathroom Renovation, Tiling, Retaining Wall, Pool Maintenance",5,Tile contractor,61402744833,nbhandyman.com.au,Claimed,-33.6448221,151.3148428,10/12/2023 13:32
https://www.google.ca/maps/place/Pipewerx+Leak+Detection/data=!4m7!3m6!1s0x6b93651bbbd88989:0xc52353c7c56d4088!8m2!3d-25.2787473!4d151.8406204!16s%2Fg%2F11fhymm7jp!19sChIJiYnYuxtlk2sRiEBtxcdTI8U?authuser=0&hl=en&rclk=1,Pipewerx Leak Detection,4.7,Swimming pool repair service,61484516939,pipewerxqld.com.au,Claimed,-25.2787473,151.8406204,10/12/2023 13:49
https://www.google.ca/maps/place/SMB+Pools+and+Handyman+Services/data=!4m7!3m6!1s0x6b72cbc09f9a010d:0xf8e5cbd4208d69ce!8m2!3d-33.3843256!4d151.3486816!16s%2Fg%2F11j4k8cn_l!19sChIJDQGan8DLcmsRzmmNINTL5fg?authuser=0&hl=en&rclk=1,SMB Pools and Handyman Services,5,Swimming pool repair service,61488387916,smb-servicesco-pl.business.site,Claimed,-33.3843256,151.3486816,10/13/2023 12:42
https://www.google.ca/maps/place/Macgyver+Maintenance+and+Pool+care/data=!4m7!3m6!1s0x2a329532bef71ce1:0xea7b8ac52fa7a331!8m2!3d-32.0445681!4d115.9931521!16s%2Fg%2F11l7z68cj7!19sChIJ4Rz3vjKVMioRMaOnL8WKe-o?authuser=0&hl=en&rclk=1,Macgyver Maintenance and Pool care,,Handyman/Handywoman/Handyperson,61401380479,,Claimed,-32.0445681,115.9931521,10/15/2023 18:18
https://www.google.ca/maps/place/NQ+Pool+Warehouse/data=!4m7!3m6!1s0x6bd5f9955532c177:0xa0949e35aaf76638!8m2!3d-19.3461513!4d146.8408195!16s%2Fg%2F1pty044x8!19sChIJd8EyVZX51WsROGb3qjWelKA?authuser=0&hl=en&rclk=1,NQ Pool Warehouse,4.5,Swimming pool contractor,61412536565,nqpoolwarehouse.com.au,Claimed,-19.3461513,146.8408195,10/16/2023 7:54
https://www.google.ca/maps/place/Beachview+Property+Maintenance/data=!4m7!3m6!1s0x6b938f8f0369b9f7:0xaaf6fbe7a492b660!8m2!3d-26.90803!4d152.9446025!16s%2Fg%2F11gyc0bk96!19sChIJ97lpA4-Pk2sRYLaSpOf79qo?authuser=0&hl=en&rclk=1,Beachview Property Maintenance,5,Swimming pool,61410581881,,Unclaimed,-26.90803,152.9446025,10/17/2023 8:09
https://www.google.ca/maps/place/Everything+Pool+Safety+%26+Compliance/data=!4m7!3m6!1s0xa4239c9585c65bed:0x6ca9f427976e2e8e!8m2!3d-27.0635319!4d152.9845295!16s%2Fg%2F11rpdf5qsn!19sChIJ7VvGhZWcI6QRji5ulyf0qWw?authuser=0&hl=en&rclk=1,Everything Pool Safety & Compliance,5,Swimming pool contractor,61418105778,everythingpoolsafety.com.au,Claimed,-27.0635319,152.9845295,10/17/2023 8:21
https://www.google.ca/maps/place/Alpha+Pool+Safety+Inspections/data=!4m7!3m6!1s0x6b12861d5f8eaaad:0x4e6630d08ce05deb!8m2!3d-33.7485813!4d150.6620116!16s%2Fg%2F11h1vh37t2!19sChIJraqOXx2GEmsR613gjNAwZk4?authuser=0&hl=en&rclk=1,Alpha Pool Safety Inspections,5,Building inspector,61490035067,alphapoolsafetyinspections.com.au,Unclaimed,-33.7485813,150.6620116,12/6/2023 18:14
https://www.google.ca/maps/place/Bayside+Peninsula+Pool+Compliance/data=!4m7!3m6!1s0xad9e32da4da0cc73:0x30f9a105ddfbeffe!8m2!3d-37.9879581!4d145.1363332!16s%2Fg%2F11s2qm_yvn!19sChIJc8ygTdoynq0R_u_73QWh-TA?authuser=0&hl=en&rclk=1,Bayside Peninsula Pool Compliance,5,Home inspector,61403577254,bppc.com.au,Claimed,-37.9879581,145.1363332,12/6/2023 18:42
https://www.google.ca/maps/place/Blue+Water+Pool+Safety+Inspection/data=!4m7!3m6!1s0xa48931eb71088313:0xa87b9dc0b0897f9d!8m2!3d-38.0828118!4d145.2689668!16s%2Fg%2F11sss2wx8w!19sChIJE4MIcesxiaQRnX-JsMCde6g?authuser=0&hl=en&rclk=1,Blue Water Pool Safety Inspection,5,Building inspector,61431129059,bluewaterpoolinspection.com.au,Claimed,-38.0828118,145.2689668,12/6/2023 18:46
https://www.google.ca/maps/place/Chris+the+Pool+Fence+Inspector+%28VPSCI%29-Victorian+Pool+and+Spa+Compliance+Inspections/data=!4m7!3m6!1s0x6ad66dda5bbbe3df:0x788cd1c0c072cd7!8m2!3d-37.9861605!4d145.0765837!16s%2Fg%2F11krrjbf_z!19sChIJ3-O7W9pt1moR1ywHDBzNiAc?authuser=0&hl=en&rclk=1,Chris the Pool Fence Inspector (VPSCI)-Victorian Pool and Spa Compliance Inspections,5,Home inspector,61492981977,vicpsci.com.au,Claimed,-37.9861605,145.0765837,12/6/2023 19:11
https://www.google.ca/maps/place/Core+Pool+Safety+Inspections+-+from+$195+%28Inc+GST%29/data=!4m7!3m6!1s0x80bd61baad7f7441:0xb91a67db014be645!8m2!3d-38.0960918!4d145.1347166!16s%2Fg%2F11t6yq842s!19sChIJQXR_rbphvYARReZLAdtnGrk?authuser=0&hl=en&rclk=1,Core Pool Safety Inspections - from $195 (Inc GST),5,Building inspector,61426134721,corepoolsafetyinspections.com.au,Claimed,-38.0960918,145.1347166,12/6/2023 19:18
https://www.google.ca/maps/place/DDC+Group+-+Pool%2FSpa+Safety+Barrier+Inspections/data=!4m7!3m6!1s0x6ad5df8ccdd7ef25:0x50b38d68585e353e!8m2!3d-38.2836648!4d144.9565076!16s%2Fg%2F11nmct_15f!19sChIJJe_XzYzf1WoRPjVeWGiNs1A?authuser=0&hl=en&rclk=1,DDC Group - Pool/Spa Safety Barrier Inspections,5,Building inspector,61490026062,,Claimed,-38.2836648,144.9565076,12/6/2023 19:21
https://www.google.ca/maps/place/DdL+Pool+Inspections+-+$250+inspection+Service/data=!4m7!3m6!1s0x2653422435699a23:0x6674f6f3a7ab9604!8m2!3d-38.1522129!4d145.1155349!16s%2Fg%2F11pclf4n1l!19sChIJI5ppNSRCUyYRBJarp_P2dGY?authuser=0&hl=en&rclk=1,DdL Pool Inspections - $250 inspection Service,5,Building inspector,61434815996,ddlpoolinspections.com.au,Claimed,-38.1522129,145.1155349,12/6/2023 19:24
https://www.google.ca/maps/place/Elite+Pool+Safety/data=!4m7!3m6!1s0x6ad61b1731639339:0x8f5f4b7d531e7628!8m2!3d-38.0571416!4d145.383124!16s%2Fg%2F11pwrb2nbh!19sChIJOZNjMRcb1moRKHYeU31LX48?authuser=0&hl=en&rclk=1,Elite Pool Safety,5,Building inspector,61487899208,elitepoolsafety.com.au,Claimed,-38.0571416,145.383124,12/6/2023 19:31
https://www.google.ca/maps/place/Hills+Pool+Inspections/data=!4m7!3m6!1s0x6b129e777c1f5e05:0x69096107dfe720a7!8m2!3d-33.6677396!4d150.8642296!16s%2Fg%2F11cjhhy47f!19sChIJBV4ffHeeEmsRpyDn3wdhCWk?authuser=0&hl=en&rclk=1,Hills Pool Inspections,5,Home inspector,61411420888,hillspools.com.au,Claimed,-33.6677396,150.8642296,12/6/2023 19:50
"https://www.google.ca/maps/place/INSPECT+WOLLONGONG+-+Building,+Pest+%26+Pool+Inspections/data=!4m7!3m6!1s0x6b131a74fcd08b9d:0x3679e7643826c781!8m2!3d-34.4221302!4d150.8822346!16s%2Fg%2F11b8d5lnwf!19sChIJnYvQ_HQaE2sRgccmOGTneTY?authuser=0&hl=en&rclk=1","INSPECT WOLLONGONG - Building, Pest & Pool Inspections",4.9,Home inspector,61450121121,inspectwollongong.com.au,Claimed,-34.4221302,150.8822346,12/6/2023 19:55
https://www.google.ca/maps/place/Inspeca+-Pool+%26+Spa+Barrier+Inspection/data=!4m7!3m6!1s0x6ad9032c292b321b:0xf192e061f842d7d2!8m2!3d-33.763406!4d150.9010925!16s%2Fg%2F11sycr9g_3!19sChIJGzIrKSwD2WoR0tdC-GHgkvE?authuser=0&hl=en&rclk=1,Inspeca -Pool & Spa Barrier Inspection,5,Building inspector,61478040690,inspeca.com.au,Claimed,-33.763406,150.9010925,12/6/2023 19:59
https://www.google.ca/maps/place/Inspect%27d+Pool+%26+Spa+Barrier+Compliance/data=!4m7!3m6!1s0x8c97cc630d29ee8d:0xfc6d64a9e0207227!8m2!3d-38.1399609!4d145.2081718!16s%2Fg%2F11t6_543kj!19sChIJje4pDWPMl4wRJ3Ig4Klkbfw?authuser=0&hl=en&rclk=1,Inspect'd Pool & Spa Barrier Compliance,5,Home inspector,61466265241,inspectd.com.au,Claimed,-38.1399609,145.2081718,12/6/2023 19:59
https://www.google.ca/maps/place/Keep+Safe+Pool+Fence+Inspections/data=!4m7!3m6!1s0x6ad60b1129d2b30d:0xb5c832bc6b794118!8m2!3d-36.5895056!4d145.4691788!16s%2Fg%2F11r2yjvs0z!19sChIJDbPSKREL1moRGEF5a7wyyLU?authuser=0&hl=en&rclk=1,Keep Safe Pool Fence Inspections,5,Home inspector,61429550793,keepsafeinspections.com.au,Claimed,-36.5895056,145.4691788,12/6/2023 20:27
https://www.google.ca/maps/place/MG+Inspect+-+Pool+Inspections+Melbourne/data=!4m7!3m6!1s0x6ad60d381e07e533:0x32869ba73b1abccc!8m2!3d-37.9508423!4d145.318301!16s%2Fg%2F11nfqzfl28!19sChIJM-UHHjgN1moRzLwaO6ebhjI?authuser=0&hl=en&rclk=1,MG Inspect - Pool Inspections Melbourne,4.9,Home inspector,61438308350,mginspect.com.au,Claimed,-37.9508423,145.318301,12/6/2023 20:34
https://www.google.ca/maps/place/National+Pool+Safety/data=!4m7!3m6!1s0x6b17ad276dda0459:0xa6c82c31ef2ab97f!8m2!3d-35.2280542!4d148.9601339!16s%2Fg%2F11g9jm2cnq!19sChIJWQTabSetF2sRf7kq7zEsyKY?authuser=0&hl=en&rclk=1,National Pool Safety,5,Building inspector,61432698289,nationalpoolsafety.com.au,Claimed,-35.2280542,148.9601339,12/6/2023 20:46
https://www.google.ca/maps/place/Peninsula+Pool+Compliance+Pty+Ltd+-+FIXED+$$+FOR+ALL+VISITS/data=!4m7!3m6!1s0x6a06aaf8949dd91d:0xe184e7467063a3ed!8m2!3d-38.1645123!4d145.1355356!16s%2Fg%2F11txpvylzn!19sChIJHdmdlPiqBmoR7aNjcEbnhOE?authuser=0&hl=en&rclk=1,Peninsula Pool Compliance Pty Ltd - FIXED $$ FOR ALL VISITS,5,Home inspector,61498589573,peninsulapoolcompliance.com.au,Claimed,-38.1645123,145.1355356,12/6/2023 20:56
https://www.google.ca/maps/place/Pool+Barrier+Inspection+Victoria/data=!4m7!3m6!1s0x2c8c5ec2a5e5bf2f:0xf9747a5969695e58!8m2!3d-37.9725665!4d145.318301!16s%2Fg%2F11rwnb0vl3!19sChIJL7_lpcJejCwRWF5paVl6dPk?authuser=0&hl=en&rclk=1,Pool Barrier Inspection Victoria,5,Building inspector,61478632404,poolbarrierinspection.com.au,Claimed,-37.9725665,145.318301,12/6/2023 20:58
https://www.google.ca/maps/place/Pool+Certify/data=!4m7!3m6!1s0x6b129f519ee9ece9:0xc0283ebe9fb3559a!8m2!3d-33.7333405!4d150.9451735!16s%2Fg%2F11dzdh0s44!19sChIJ6ezpnlGfEmsRmlWzn74-KMA?authuser=0&hl=en&rclk=1,Pool Certify,4.6,Certification agency,61400248448,poolcertify.com.au,Claimed,-33.7333405,150.9451735,12/6/2023 20:58
https://www.google.ca/maps/place/Pool+Safe+Mildura/data=!4m7!3m6!1s0x6ac30398031121ad:0x21bf7046c310ab09!8m2!3d-34.1862304!4d142.1515866!16s%2Fg%2F11rhylr9nh!19sChIJrSERA5gDw2oRCasQw0ZwvyE?authuser=0&hl=en&rclk=1,Pool Safe Mildura,5,Building inspector,61455537439,poolsafemildura.com.au,Claimed,-34.1862304,142.1515866,12/6/2023 20:58
https://www.google.ca/maps/place/Pool+Safety+Certifier/data=!4m7!3m6!1s0x6b12bb82696b201b:0xa4d98d776e664821!8m2!3d-33.934209!4d151.0912522!16s%2Fg%2F11t29v0wff!19sChIJGyBraYK7EmsRIUhmbneN2aQ?authuser=0&hl=en&rclk=1,Pool Safety Certifier,3.6,Home inspector,61403266003,fence.company.site,Claimed,-33.934209,151.0912522,12/6/2023 20:58
https://www.google.ca/maps/place/Poolsafe+Pool+%26+Spa+Inspections/data=!4m7!3m6!1s0x2730148ab9fe44af:0x4f4b412fad283009!8m2!3d-38.014068!4d145.2396574!16s%2Fg%2F11rcd98jlf!19sChIJr0T-uYoUMCcRCTAorS9BS08?authuser=0&hl=en&rclk=1,Poolsafe Pool & Spa Inspections,5,Building inspector,61401937289,poolsafeinspect.com.au,Claimed,-38.014068,145.2396574,12/6/2023 20:59
https://www.google.ca/maps/place/Regulatory+Pool+Approvals/data=!4m7!3m6!1s0x6425d096e6ce714f:0x201adf95c915bf98!8m2!3d-37.9579086!4d145.0692675!16s%2Fg%2F11qh90097k!19sChIJT3HO5pbQJWQRmL8VyZXfGiA?authuser=0&hl=en&rclk=1,Regulatory Pool Approvals,5,Building inspector,61483006781,poolsapproval.com.au,Claimed,-37.9579086,145.0692675,12/6/2023 21:11
https://www.google.ca/maps/place/Safeside+Pool+Barrier+Inspections/data=!4m7!3m6!1s0x6ad617709af4973d:0xadd4d2b2d9892033!8m2!3d-37.9311011!4d145.2568689!16s%2Fg%2F11tjm0xvlq!19sChIJPZf0mnAX1moRMyCJ2bLS1K0?authuser=0&hl=en&rclk=1,Safeside Pool Barrier Inspections,5,Home inspector,61410082858,safesidepbi.com.au,Claimed,-37.9311011,145.2568689,12/6/2023 21:20
https://www.google.ca/maps/place/Victorian+Building+and+Pool+Inspections/data=!4m7!3m6!1s0x6ad625d920b79a7b:0x2ca433fc2a2ecc3d!8m2!3d-38.0765779!4d145.3448576!16s%2Fg%2F11frp45862!19sChIJe5q3INkl1moRPcwuKvwzpCw?authuser=0&hl=en&rclk=1,Victorian Building and Pool Inspections,2.3,Home inspector,61456097470,victorian-building-inspections.business.site,Claimed,-38.0765779,145.3448576,12/6/2023 21:43
https://www.google.ca/maps/place/iComply+Pool+Safety+Certification/data=!4m7!3m6!1s0x6b12a19d2bf09b59:0xe616de0764d19aed!8m2!3d-32.83115!4d150.0523617!16s%2Fg%2F11c204p5gm!19sChIJWZvwK52hEmsR7ZrRZAfeFuY?authuser=0&hl=en&rclk=1,iComply Pool Safety Certification,4.9,Certification agency,61412339982,icomplypoolsafety.com.au,Claimed,-32.83115,150.0523617,12/6/2023 21:50
https://www.google.ca/maps/place/A1+Building+%26+Pest+%26+Pool+Inspection+%26+Stage+Inspections+%26+Consultancy/data=!4m7!3m6!1s0x6b91516d13f2662b:0x6e69ff30edf59e53!8m2!3d-27.4821852!4d152.9848527!16s%2Fg%2F11j8jzf8rd!19sChIJK2byE21RkWsRU5717TD_aW4?authuser=0&hl=en&rclk=1,A1 Building & Pest & Pool Inspection & Stage Inspections & Consultancy,4.9,Building inspector,61401018030,a1buildinginspection.com.au,Claimed,-27.4821852,152.9848527,12/6/2023 22:30
https://www.google.ca/maps/place/Atlas+Pool+%26+Building+Inspections/data=!4m7!3m6!1s0x6c3c076b42ad3971:0x694f33dc1e63248b!8m2!3d-37.9725665!4d145.0722179!16s%2Fg%2F11t7gp16vl!19sChIJcTmtQmsHPGwRiyRjHtwzT2k?authuser=0&hl=en&rclk=1,Atlas Pool & Building Inspections,5,Building inspector,61408807959,atlasinspections.com.au,Claimed,-37.9725665,145.0722179,12/6/2023 22:42
https://www.google.ca/maps/place/Aussie+Pool+and+Spa+Inspections/data=!4m7!3m6!1s0x2b84f6af8f7747e5:0x13bdbc6c589020a4!8m2!3d-38.0754897!4d145.4796699!16s%2Fg%2F11ryllpkd9!19sChIJ5Ud3j6_2hCsRpCCQWGy8vRM?authuser=0&hl=en&rclk=1,Aussie Pool and Spa Inspections,5,Building inspector,61415331313,aussiepoolandspainspections.com.au,Claimed,-38.0754897,145.4796699,12/6/2023 22:42
https://www.google.ca/maps/place/Bass+Coast+Pool+Inspections/data=!4m7!3m6!1s0x6b2a0d36734a17ed:0x1f089939762d7992!8m2!3d-38.6031714!4d145.5960582!16s%2Fg%2F11qnx0243h!19sChIJ7RdKczYNKmsRknktdjmZCB8?authuser=0&hl=en&rclk=1,Bass Coast Pool Inspections,5,Home inspector,61418888713,basscoastpoolinspections.com.au,Claimed,-38.6031714,145.5960582,12/6/2023 22:47
https://www.google.ca/maps/place/Brisbane+Pool+Safety+Inspections/data=!4m7!3m6!1s0x6b9158158d783b37:0x9a14f4eed4bf0d14!8m2!3d-27.3998153!4d153.0340615!16s%2Fg%2F11csrsngqd!19sChIJNzt4jRVYkWsRFA2_1O70FJo?authuser=0&hl=en&rclk=1,Brisbane Pool Safety Inspections,5,Swimming pool contractor,61411048952,brisbane-poolsafetyinspections.com.au,Claimed,-27.3998153,153.0340615,12/6/2023 22:48
"https://www.google.ca/maps/place/Ironside+Building,+Pest+%26+Pool+Inspections/data=!4m7!3m6!1s0x6b915bfec54a7399:0xc26a997df7fff9b7!8m2!3d-27.4766814!4d153.015902!16s%2Fg%2F11gvxk3g58!19sChIJmXNKxf5bkWsRt_n_932ZasI?authuser=0&hl=en&rclk=1","Ironside Building, Pest & Pool Inspections",5,Home inspector,61416291179,ironsidebuildinginspections.com.au,Claimed,-27.4766814,153.015902,12/6/2023 23:13
https://www.google.ca/maps/place/Kasper+Pest+%26+Building+Inspections+Caboolture+-+Handover+%26+Pool+safety+inspections+Moreton+Bay/data=!4m7!3m6!1s0x6b93f77b8830bb35:0x281de4bd96c0a077!8m2!3d-26.890999!4d153.0597087!16s%2Fg%2F11gy893wlz!19sChIJNbswiHv3k2sRd6DAlr3kHSg?authuser=0&hl=en&rclk=1,Kasper Pest & Building Inspections Caboolture - Handover & Pool safety inspections Moreton Bay,,Home inspector,61424848724,pinkpages.com.au,Claimed,-26.890999,153.0597087,12/6/2023 23:17
https://www.google.ca/maps/place/Logic+Pool+inspections/data=!4m7!3m6!1s0x80da21e42f0654bd:0x3e0e4fbf9db22ef5!8m2!3d-37.9725665!4d145.0531353!16s%2Fg%2F11q889ftjx!19sChIJvVQGL-Qh2oAR9S6ynb9PDj4?authuser=0&hl=en&rclk=1,Logic Pool inspections,5,Building inspector,61452428691,logicpoolinspections.com.au,Claimed,-37.9725665,145.0531353,12/6/2023 23:19
https://www.google.ca/maps/place/My+Pool+Safety+Inspector+%28Brisbane+QLD%29/data=!4m7!3m6!1s0x6b91450033e81c89:0x42fbf506cab365d0!8m2!3d-27.6164592!4d152.9599681!16s%2Fg%2F11dyrbkxnb!19sChIJiRzoMwBFkWsR0GWzygb1-0I?authuser=0&hl=en&rclk=1,My Pool Safety Inspector (Brisbane QLD),4.8,Swimming pool contractor,61426622557,mypsi.com.au,Claimed,-27.6164592,152.9599681,12/6/2023 23:22
https://www.google.ca/maps/place/Pool+Safe+QLD/data=!4m7!3m6!1s0x6b91497a7aa6c065:0xc63679d3e2d33927!8m2!3d-27.4800954!4d152.9251382!16s%2Fg%2F11fd6cy9ng!19sChIJZcCmenpJkWsRJznT4tN5NsY?authuser=0&hl=en&rclk=1,Pool Safe QLD,5,Building inspector,61490953577,poolsafeqld.com.au,Claimed,-27.4800954,152.9251382,12/6/2023 23:26
https://www.google.ca/maps/place/Pool+Safety+Barrier+Inspections/data=!4m7!3m6!1s0x6ad66d83c02b491d:0x23b3f9637e1dfc57!8m2!3d-37.9863867!4d145.0349984!16s%2Fg%2F11fsgwhfvc!19sChIJHUkrwINt1moRV_wdfmP5syM?authuser=0&hl=en&rclk=1,Pool Safety Barrier Inspections,5,Home inspector,61476657782,poolinspectionsvic.com.au,Claimed,-37.9863867,145.0349984,12/6/2023 23:26
https://www.google.ca/maps/place/Pool+Safety+Inspector+Queensland/data=!4m7!3m6!1s0x6b93e5d944ba33a3:0xcdfeb71cdf31b9e7!8m2!3d-27.3821429!4d152.9931964!16s%2Fg%2F11gjgys0yy!19sChIJozO6RNnlk2sR57kx3xy3_s0?authuser=0&hl=en&rclk=1,Pool Safety Inspector Queensland,5,Swimming pool contractor,61437183084,,Claimed,-27.3821429,152.9931964,12/6/2023 23:27
https://www.google.ca/maps/place/PoolSafe+Certifications/data=!4m7!3m6!1s0x6b915b63a9250d89:0x94fb44a044e10be0!8m2!3d-27.27997!4d153.1103469!16s%2Fg%2F11pr2rw66y!19sChIJiQ0lqWNbkWsR4AvhRKBE-5Q?authuser=0&hl=en&rclk=1,PoolSafe Certifications,5,Building inspector,61421112409,pool-safety.com.au,Claimed,-27.27997,153.1103469,12/6/2023 23:27
https://www.google.ca/maps/place/Waterline+Pool+Barrier+Inspections/data=!4m7!3m6!1s0xd093d8ea47d21bd:0xfece5ec8080fa612!8m2!3d-37.955687!4d146.4154766!16s%2Fg%2F11v1584hm7!19sChIJvSF9pI49CQ0REqYPCMhezv4?authuser=0&hl=en&rclk=1,Waterline Pool Barrier Inspections,,Building inspector,61427352972,waterlinepoolbarrierinspections.com.au,Claimed,-37.955687,146.4154766,12/6/2023 23:39
https://www.google.ca/maps/place/bass+coast+pool+fence+inspections/data=!4m7!3m6!1s0x6ad5f358424f4c9b:0xc4260eb5b10a1ae1!8m2!3d-38.5216602!4d145.3756013!16s%2Fg%2F11rkf_snty!19sChIJm0xPQljz1WoR4RoKsbUOJsQ?authuser=0&hl=en&rclk=1,bass coast pool fence inspections,5,Building inspector,61415951707,,Claimed,-38.5216602,145.3756013,12/6/2023 23:40
https://www.google.ca/maps/place/Brisbane+Pool+Certifiers/data=!4m7!3m6!1s0x6b9155e54e2299b5:0x1ee308080611a1c6!8m2!3d-27.4049792!4d152.8631153!16s%2Fg%2F11f7r6p_8t!19sChIJtZkiTuVVkWsRxqERBggI4x4?authuser=0&hl=en&rclk=1,Brisbane Pool Certifiers,5,Swimming pool contractor,61417630509,brisbanepoolcertifiers.com.au,Claimed,-27.4049792,152.8631153,12/8/2023 8:53
https://www.google.ca/maps/place/Budget+Pool+Safety+Inspections/data=!4m7!3m6!1s0x6b915cb833abefbb:0xb5514a2c343cce66!8m2!3d-27.5605884!4d153.1297719!16s%2Fg%2F1tffzp7v!19sChIJu--rM7hckWsRZs48NCxKUbU?authuser=0&hl=en&rclk=1,Budget Pool Safety Inspections,5,Swimming pool contractor,61405123242,budgetpoolsafetyinspections.com.au,Claimed,-27.5605884,153.1297719,12/8/2023 8:54
https://www.google.ca/maps/place/%28LPR%29+Local+Pool+Renovations+Melbourne/data=!4m7!3m6!1s0x6ad6137b5a3bea59:0x606cac6ee7c7dcd9!8m2!3d-38.042702!4d145.064498!16s%2Fg%2F1ptzfdh_n!19sChIJWeo7WnsT1moR2dzH526sbGA?authuser=0&hl=en&rclk=1,(LPR) Local Pool Renovations Melbourne,5,Swimming pool contractor,61407666999,localpoolrenovations.com.au,Claimed,-38.042702,145.064498,12/11/2023 10:26
https://www.google.ca/maps/place//data=!4m4!3m3!1s0x0:0xa21c9b981903a3c1!16s%2Fg%2F11pgxssnfm!19sChIJAAAAAAAAAAARwaMDGZibHKI?authuser=0&hl=en&rclk=1,Hills Pool Service,5,Swimming pool repair service,61460711759,hillspoolservice.com.au,Claimed,-33.6956096,151.0239164,12/11/2023 10:26
https://www.google.ca/maps/place/1+Pool+Care/data=!4m7!3m6!1s0x2bcd558c8e1e7357:0xdbbc7deaab4ebd01!8m2!3d-31.7036176!4d115.764952!16s%2Fg%2F11hj7gqdyt!19sChIJV3MejoxVzSsRAb1Oq-p9vNs?authuser=0&hl=en&rclk=1,1 Pool Care,4.9,Pool cleaning service,61456757575,1poolcare.com.au,Claimed,-31.7036176,115.764952,12/11/2023 10:27
https://www.google.ca/maps/place/2+B+Clear+Pool+Care+Solutions/data=!4m7!3m6!1s0x6b128fb9637eea87:0x76e19ec84fd048cf!8m2!3d-33.795639!4d150.7774604!16s%2Fg%2F11k02p4g8y!19sChIJh-p-Y7mPEmsRz0jQT8ie4XY?authuser=0&hl=en&rclk=1,2 B Clear Pool Care Solutions,,Swimming pool supply store,61410693145,2bclearpoolcare.business.site,Claimed,-33.795639,150.7774604,12/11/2023 10:27
https://www.google.ca/maps/place/2+States+Pool+Repairs/data=!4m7!3m6!1s0x6ad8ab841b22ae65:0xcfef472b2b119f4e!8m2!3d-35.9258213!4d145.4752764!16s%2Fg%2F11fjyzr5zx!19sChIJZa4iG4Sr2GoRTp8RKytH788?authuser=0&hl=en&rclk=1,2 States Pool Repairs,5,Swimming pool contractor,61428869349,2statespoolrepairs.com,Claimed,-35.9258213,145.4752764,12/11/2023 10:27
https://www.google.ca/maps/place/2K+POOLS+%26+SPAS/data=!4m7!3m6!1s0x2d4a9d32a3d20d6f:0x13e9b27b0e640183!8m2!3d-38.005604!4d145.0531353!16s%2Fg%2F11rjq9ndcz!19sChIJbw3SozKdSi0RgwFkDnuy6RM?authuser=0&hl=en&rclk=1,2K POOLS & SPAS,5,Pool cleaning service,61424619993,2kpoolsandspas.com.au,Claimed,-38.005604,145.0531353,12/11/2023 10:27
https://www.google.ca/maps/place/4K+Pools/data=!4m7!3m6!1s0x6143c41ed22140f1:0xc106d183b443b835!8m2!3d-27.3821429!4d152.9931964!16s%2Fg%2F11sn_2x6rj!19sChIJ8UAh0h7EQ2ERNbhDtIPRBsE?authuser=0&hl=en&rclk=1,4K Pools,5,Pool cleaning service,61421010246,,Claimed,-27.3821429,152.9931964,12/11/2023 10:28
https://www.google.ca/maps/place/A+Grade+Pools+-+Sydney+Pool+Builders/data=!4m7!3m6!1s0x6b12abc980a83345:0xb7070c434ec6c3a1!8m2!3d-33.8225814!4d150.9319747!16s%2Fg%2F11qn80dbj8!19sChIJRTOogMmrEmsRocPGTkMMB7c?authuser=0&hl=en&rclk=1,A Grade Pools - Sydney Pool Builders,5,Swimming pool contractor,61437672223,agradepools.com.au,Claimed,-33.8225814,150.9319747,12/11/2023 10:28
https://www.google.ca/maps/place/ALL+AROUND+POOL+CLEANING/data=!4m7!3m6!1s0x6b12b26d17f7acb7:0x89d29b22c0ba7d9e!8m2!3d-33.9097967!4d151.259462!16s%2Fg%2F1tcx74z4!19sChIJt6z3F22yEmsRnn26wCKb0ok?authuser=0&hl=en&rclk=1,ALL AROUND POOL CLEANING,2.6,Swimming pool repair service,61466400747,nicksta95.wixsite.com,Claimed,-33.9097967,151.259462,12/11/2023 10:32
https://www.google.ca/maps/place/APT+Pool+Services/data=!4m7!3m6!1s0x6b72c9bb154f4687:0x623f0267097ed607!8m2!3d-33.4073035!4d151.432284!16s%2Fg%2F11v19jf3_l!19sChIJh0ZPFbvJcmsRB9Z-CWcCP2I?authuser=0&hl=en&rclk=1,APT Pool Services,5,Swimming pool contractor,61407442476,aptpoolservices.au,Claimed,-33.4073035,151.432284,12/11/2023 10:33
https://www.google.ca/maps/place/AQUA+Pool+interior+designer+pebblecrete+and+renovations/data=!4m7!3m6!1s0x6b12973f1f19db15:0x6f388e6b82b90b2c!8m2!3d-33.8308506!4d150.9541336!16s%2Fg%2F11sz3v4zyy!19sChIJFdsZHz-XEmsRLAu5gmuOOG8?authuser=0&hl=en&rclk=1,AQUA Pool interior designer pebblecrete and renovations,4.1,Swimming pool,61455575558,,Claimed,-33.8308506,150.9541336,12/11/2023 10:33
https://www.google.ca/maps/place/AQUAFLO/data=!4m7!3m6!1s0x6ab0cf1e040c8fe5:0xd1bed3f06d06e542!8m2!3d-35.0014301!4d138.7430669!16s%2Fg%2F11gtyh6769!19sChIJ5Y8MBB7PsGoRQuUGbfDTvtE?authuser=0&hl=en&rclk=1,AQUAFLO,5,Swimming pool repair service,61420225989,,Claimed,-35.0014301,138.7430669,12/11/2023 10:33
https://www.google.ca/maps/place/AQUAGLAZE/data=!4m7!3m6!1s0x6b0d534f5344b8a9:0xa89ace7b0cb82e27!8m2!3d-32.83115!4d150.0523617!16s%2Fg%2F1tg7s4x8!19sChIJqbhEU09TDWsRJy64DHvOmqg?authuser=0&hl=en&rclk=1,AQUAGLAZE,4.4,Swimming pool contractor,61434050221,aqualinepoolresurfacing.com.au,Claimed,-32.83115,150.0523617,12/11/2023 10:33
https://www.google.ca/maps/place/ARM+Pools+%7C+Pool+Maintenance+Quakers+Hill+%7C+Repair+%7C+Installation+%7C+Sydney+%7C+Nsw/data=!4m7!3m6!1s0x63a5d14cd641cef7:0xe22e961494558762!8m2!3d-33.728736!4d150.8898296!16s%2Fg%2F11tjwzdqsv!19sChIJ985B1kzRpWMRYodVlBSWLuI?authuser=0&hl=en&rclk=1,ARM Pools | Pool Maintenance Quakers Hill | Repair | Installation | Sydney | Nsw,5,Swimming pool contractor,61476339158,,Claimed,-33.728736,150.8898296,12/11/2023 10:34
https://www.google.ca/maps/place/Active+Pools+%26+Spas+Coffs+Harbour+%26+Northcoast/data=!4m7!3m6!1s0x6b9c0bb8be757039:0xb9f1f0c834d54a9a!8m2!3d-30.3155021!4d153.0854949!16s%2Fg%2F1hc1l8cb4!19sChIJOXB1vrgLnGsRmkrVNMjw8bk?authuser=0&hl=en&rclk=1,Active Pools & Spas Coffs Harbour & Northcoast,4.6,Swimming pool contractor,61400076735,activepoolsandspas.com.au,Claimed,-30.3155021,153.0854949,12/11/2023 10:39
https://www.google.ca/maps/place/Adelaide+Pool+Equipment/data=!4m7!3m6!1s0x6ab0c5f7f2295555:0x6f179066930387fc!8m2!3d-34.9096631!4d138.557935!16s%2Fg%2F11jdjfmx46!19sChIJVVUp8vfFsGoR_IcDk2aQF28?authuser=0&hl=en&rclk=1,Adelaide Pool Equipment,3.7,Swimming pool contractor,61419857987,adelaidepoolequipment.com.au,Claimed,-34.9096631,138.557935,12/11/2023 10:40
https://www.google.ca/maps/place/Adelaide+Pool+Inspections/data=!4m7!3m6!1s0x277419085428fe07:0x4f6cf854df790752!8m2!3d-32.0294898!4d135.0021478!16s%2Fg%2F11sn_7qz1l!19sChIJB_4oVAgZdCcRUgd531T4bE8?authuser=0&hl=en&rclk=1,Adelaide Pool Inspections,,Building inspector,61408741781,sapoolinspections.com.au,Claimed,-32.0294898,135.0021478,12/11/2023 10:40
https://www.google.ca/maps/place/Adelaide+Pool+Solutions/data=!4m7!3m6!1s0x6ab0c765f0b21209:0x60909da4cdb703f9!8m2!3d-34.8781919!4d138.4896115!16s%2Fg%2F11btstx81x!19sChIJCRKy8GXHsGoR-QO3zaSdkGA?authuser=0&hl=en&rclk=1,Adelaide Pool Solutions,3.5,Swimming pool repair service,61423367727,adelaidepoolsolutions.com.au,Claimed,-34.8781919,138.4896115,12/11/2023 10:40
https://www.google.ca/maps/place/Adept+Pool+Services/data=!4m7!3m6!1s0x6b17b5f3d7f938bd:0xbead6121c4592c41!8m2!3d-35.2723979!4d149.0291896!16s%2Fg%2F11gjs7xcn2!19sChIJvTj51_O1F2sRQSxZxCFhrb4?authuser=0&hl=en&rclk=1,Adept Pool Services,5,Swimming pool contractor,61488266413,adeptpoolservices.net.au,Claimed,-35.2723979,149.0291896,12/11/2023 10:41
https://www.google.ca/maps/place/Advantage+Pool+Maintenance/data=!4m7!3m6!1s0xa5a28f3172f601e3:0x6f7b39e30d301443!8m2!3d-27.1000986!4d152.9819936!16s%2Fg%2F11scp0y0vw!19sChIJ4wH2cjGPoqURQxQwDeM5e28?authuser=0&hl=en&rclk=1,Advantage Pool Maintenance,5,Pool cleaning service,61438282812,,Claimed,-27.1000986,152.9819936,12/11/2023 10:42
https://www.google.ca/maps/place/Alex+pool+%26+garden+maintenance/data=!4m7!3m6!1s0x6b12c151a30447a5:0x22f70c0f8375b1d8!8m2!3d-34.0124452!4d151.0287828!16s%2Fg%2F11lsnk15c5!19sChIJpUcEo1HBEmsR2LF1gw8M9yI?authuser=0&hl=en&rclk=1,Alex pool & garden maintenance,5,Swimming pool supply store,61410001110,alexpoolshop.com.au,Claimed,-34.0124452,151.0287828,12/11/2023 10:44
https://www.google.ca/maps/place/All+Pool+Inspections/data=!4m7!3m6!1s0x6b939e1ef7622ae9:0x4f38d7086e0c20c2!8m2!3d-26.6064825!4d153.0741567!16s%2Fg%2F1tgw561h!19sChIJ6Spi9x6ek2sRwiAMbgjXOE8?authuser=0&hl=en&rclk=1,All Pool Inspections,5,Building inspector,61421905103,allpoolinspections.com.au,Claimed,-26.6064825,153.0741567,12/11/2023 10:45
https://www.google.ca/maps/place/Amethyst+Pool+Services/data=!4m7!3m6!1s0x2a32a269221db7f3:0xf24a900e4d6f1a1c!8m2!3d-31.4678739!4d116.4379383!16s%2Fg%2F1hjgj8chv!19sChIJ87cdImmiMioRHBpvTQ6QSvI?authuser=0&hl=en&rclk=1,Amethyst Pool Services,4.9,Pool cleaning service,61403372376,amethystpoolservices.com,Claimed,-31.4678739,116.4379383,12/11/2023 10:46
https://www.google.ca/maps/place/Amrock+Landscapes+%26+Pools/data=!4m7!3m6!1s0x6b12c7f58970634f:0x23a5febe0c9e8f54!8m2!3d-34.0273892!4d151.1256194!16s%2Fg%2F11h3kzhjx_!19sChIJT2NwifXHEmsRVI-eDL7-pSM?authuser=0&hl=en&rclk=1,Amrock Landscapes & Pools,4.7,Swimming pool contractor,61400193837,amrocklandscapes.com,Claimed,-34.0273892,151.1256194,12/11/2023 10:47
https://www.google.ca/maps/place/Angelsea+Pools/data=!4m7!3m6!1s0x6b12c7b7891ebaab:0xde358341274b5915!8m2!3d-34.0595509!4d151.1150477!16s%2Fg%2F1thf8qmh!19sChIJq7oeibfHEmsRFVlLJ0GDNd4?authuser=0&hl=en&rclk=1,Angelsea Pools,3.8,Swimming pool contractor,61412046441,angelseapools.com,Claimed,-34.0595509,151.1150477,12/11/2023 10:47
https://www.google.ca/maps/place/Aqua+Care+Pool+Services/data=!4m7!3m6!1s0x2a4d67a9af0ede6b:0x5350f52e40e0c445!8m2!3d-30.6873806!4d121.772557!16s%2Fg%2F11h1rn_n64!19sChIJa94Or6lnTSoRRcTgQC71UFM?authuser=0&hl=en&rclk=1,Aqua Care Pool Services,,Pool cleaning service,61475789322,,Claimed,-30.6873806,121.772557,12/11/2023 10:48
https://www.google.ca/maps/place/Aqua+Clear+Pool+Maintenance/data=!4m7!3m6!1s0x6b9111566ae128a9:0xda268ae3d0aecfe7!8m2!3d-27.9362716!4d153.341852!16s%2Fg%2F11r3nwt3yz!19sChIJqSjhalYRkWsR58-u0OOKJto?authuser=0&hl=en&rclk=1,Aqua Clear Pool Maintenance,4.4,Swimming pool contractor,61419781788,aquaclearpoolmaintenance.com.au,Claimed,-27.9362716,153.341852,12/11/2023 10:48
https://www.google.ca/maps/place/Aqua+Leak/data=!4m7!3m6!1s0x6b72ca71fb2fa221:0xd8ac72dafefa107e!8m2!3d-33.432442!4d151.39017!16s%2Fg%2F1vfp3t35!19sChIJIaIv-3HKcmsRfhD6_tpyrNg?authuser=0&hl=en&rclk=1,Aqua Leak,5,Swimming pool contractor,61425748363,aqualeak.com.au,Claimed,-33.432442,151.39017,12/11/2023 10:48
https://www.google.ca/maps/place/Aqua+Pool+Cleaning/data=!4m7!3m6!1s0x6ad5db1732b40001:0x992c92fe242e5a76!8m2!3d-38.2827406!4d145.0017875!16s%2Fg%2F11ny0kk0lb!19sChIJAQC0Mhfb1WoRdlouJP6SLJk?authuser=0&hl=en&rclk=1,Aqua Pool Cleaning,5,Pool cleaning service,61413994740,aquapoolcleaning.com.au,Claimed,-38.2827406,145.0017875,12/11/2023 10:49
https://www.google.ca/maps/place/Aqua+Pool+Inspections/data=!4m7!3m6!1s0x6b12a4adb8456e73:0xbcb0f4c838f34a0c!8m2!3d-33.817731!4d151.1495592!16s%2Fg%2F11c0t9dp1j!19sChIJc25FuK2kEmsRDErzOMj0sLw?authuser=0&hl=en&rclk=1,Aqua Pool Inspections,2,Swimming pool contractor,61414432205,aquapool.com.au,Claimed,-33.817731,151.1495592,12/11/2023 10:49
https://www.google.ca/maps/place/Aqua+Shack/data=!4m7!3m6!1s0x8678aa0b63b1a5d:0xed0d12e9ee7a8349!8m2!3d-38.3468354!4d145.5970423!16s%2Fg%2F11tn5cm0t2!19sChIJXRo7tqCKZwgRSYN67ukSDe0?authuser=0&hl=en&rclk=1,Aqua Shack,5,Swimming pool repair service,61458499313,aquashack.com.au,Claimed,-38.3468354,145.5970423,12/11/2023 10:49
https://www.google.ca/maps/place/AquaBright+Pools/data=!4m7!3m6!1s0x6b0d557a16455b47:0xf5a5f13e8cc7c885!8m2!3d-33.6721535!4d151.300661!16s%2Fg%2F11n1kmsnzk!19sChIJR1tFFnpVDWsRhcjHjD7xpfU?authuser=0&hl=en&rclk=1,AquaBright Pools,5,Pool cleaning service,61448745497,aquabrightpools.com.au,Claimed,-33.6721535,151.300661,12/11/2023 10:49
https://www.google.ca/maps/place/AquaSense+Pool+Services/data=!4m7!3m6!1s0x6b1290728f3f1e25:0x867c890c54ddafd3!8m2!3d-33.7980974!4d150.8958452!16s%2Fg%2F11by_gzyjj!19sChIJJR4_j3KQEmsR06_dVAyJfIY?authuser=0&hl=en&rclk=1,AquaSense Pool Services,5,Swimming pool contractor,61430576312,,Claimed,-33.7980974,150.8958452,12/11/2023 10:49
https://www.google.ca/maps/place/AquaTec+Pool+Service/data=!4m7!3m6!1s0x6ad6396e3e728afb:0x9baa62d8429d82c8!8m2!3d-37.8331836!4d145.1734426!16s%2Fg%2F11c7sq2v6x!19sChIJ-4pyPm451moRyIKdQthiqps?authuser=0&hl=en&rclk=1,AquaTec Pool Service,5,Pool cleaning service,61425706138,,Claimed,-37.8331836,145.1734426,12/11/2023 10:49
https://www.google.ca/maps/place/Aquagardman/data=!4m7!3m6!1s0x60deba79e297738f:0xc4ba319b6ea3153!8m2!3d-37.7892787!4d144.7587236!16s%2Fg%2F11rqkfy9md!19sChIJj3OX4nm63mARUzHqthmjSww?authuser=0&hl=en&rclk=1,Aquagardman,3.7,Pool cleaning service,61424301777,aquagardman.com.au,Claimed,-37.7892787,144.7587236,12/11/2023 10:49
https://www.google.ca/maps/place/Aquatech+Pool+Services/data=!4m7!3m6!1s0x6b12bc054e7a0993:0x56f0da8eee58b673!8m2!3d-34.0374884!4d151.0772386!16s%2Fg%2F12m96t1md!19sChIJkwl6TgW8EmsRc7ZY7o7a8FY?authuser=0&hl=en&rclk=1,Aquatech Pool Services,4.4,Pool cleaning service,61424476111,,Claimed,-34.0374884,151.0772386,12/11/2023 10:50
https://www.google.ca/maps/place/Aquaticare+Pool+and+Spa/data=!4m7!3m6!1s0x6b13a9b904237411:0x51d15767f8856682!8m2!3d-34.4909473!4d150.3548578!16s%2Fg%2F11js2vw_ss!19sChIJEXQjBLmpE2sRgmaF-GdX0VE?authuser=0&hl=en&rclk=1,Aquaticare Pool and Spa,5,Pool cleaning service,61448742967,aquaticare.com.au,Claimed,-34.4909473,150.3548578,12/11/2023 10:50
https://www.google.ca/maps/place/Ash%27s+Pool+Solutions/data=!4m7!3m6!1s0x6b12c9d3f92178d5:0x92d9d7b26caa576d!8m2!3d-32.7888316!4d151.9303104!16s%2Fg%2F11h2qqvnfh!19sChIJ1Xgh-dPJEmsRbVeqbLLX2ZI?authuser=0&hl=en&rclk=1,Ash's Pool Solutions,5,Swimming pool repair service,61431484702,sitelift.website,Claimed,-32.7888316,151.9303104,12/11/2023 10:55
https://www.google.ca/maps/place/Auspro+Pool+Servicing/data=!4m7!3m6!1s0x6ad62e9a49b13149:0xda426da19b3357d6!8m2!3d-37.796253!4d145.2843722!16s%2Fg%2F1tmz71t2!19sChIJSTGxSZou1moR1lczm6FtQto?authuser=0&hl=en&rclk=1,Auspro Pool Servicing,4.3,Swimming pool repair service,61468359063,auspropool.com.au,Unclaimed,-37.796253,145.2843722,12/11/2023 10:56
https://www.google.ca/maps/place/Aussie+Pools/data=!4m7!3m6!1s0x1f2154eb89bc0b1:0x62b17c0e437666a4!8m2!3d-38.2274054!4d146.2201018!16s%2Fg%2F11js5dxpt8!19sChIJscCbuE4V8gERpGZ2Qw58sWI?authuser=0&hl=en&rclk=1,Aussie Pools,3.7,Swimming pool repair service,61429362169,aussiepools.au,Claimed,-38.2274054,146.2201018,12/11/2023 10:57
https://www.google.ca/maps/place/BNA+Pools/data=!4m7!3m6!1s0x6b747f70b593572d:0x6caf109418fac89f!8m2!3d-32.5958966!4d152.1134006!16s%2Fg%2F11m42k8brv!19sChIJLVeTtXB_dGsRn8j6GJQQr2w?authuser=0&hl=en&rclk=1,BNA Pools,3.9,Swimming pool repair service,61481345442,bna-pools.business.site,Claimed,-32.5958966,152.1134006,12/11/2023 11:02
https://www.google.ca/maps/place/BP+Pool+Service/data=!4m7!3m6!1s0x6ad647781a1c5509:0x5b104cb25b4b953a!8m2!3d-37.867091!4d145.318301!16s%2Fg%2F11clsp12r4!19sChIJCVUcGnhH1moROpVLW7JMEFs?authuser=0&hl=en&rclk=1,BP Pool Service,5,Swimming pool contractor,61449226752,,Claimed,-37.867091,145.318301,12/11/2023 11:02
https://www.google.ca/maps/place/Ballina+Pools/data=!4m7!3m6!1s0x27c28edf1e94ed67:0xf0298a2d8346d61!8m2!3d-28.7453443!4d153.579225!16s%2Fg%2F11sfgq31_r!19sChIJZ-2UHt-OwicRYW002KKYAg8?authuser=0&hl=en&rclk=1,Ballina Pools,,Pool cleaning service,61488145044,ballinapools.com.au,Claimed,-28.7453443,153.579225,12/11/2023 11:04
https://www.google.ca/maps/place/Barrenjoey+Pool+Services+Pty+Ltd/data=!4m7!3m6!1s0x6b0d5336589fb62d:0x5255d1b1ce3054bb!8m2!3d-33.7010384!4d151.2850528!16s%2Fg%2F11b67mw2fv!19sChIJLbafWDZTDWsRu1QwzrHRVVI?authuser=0&hl=en&rclk=1,Barrenjoey Pool Services Pty Ltd,,Swimming pool repair service,61418613604,avalonpoolcare.com,Claimed,-33.7010384,151.2850528,12/11/2023 11:05
https://www.google.ca/maps/place/Bate+Bay+Pool+Services/data=!4m7!3m6!1s0xbd1b3c8b875ee75:0x415660ce233ffc09!8m2!3d-34.0718139!4d151.0772386!16s%2Fg%2F11t5lyhg05!19sChIJde51uMiz0QsRCfw_I85gVkE?authuser=0&hl=en&rclk=1,Bate Bay Pool Services,5,Pool cleaning service,61455026265,batebaypoolservices.com,Claimed,-34.0718139,151.0772386,12/11/2023 11:05
https://www.google.ca/maps/place/Bayside+PoolTech/data=!4m7!3m6!1s0x6ad66dcd5bc87d95:0x69692dc72afed68b!8m2!3d-37.9444184!4d145.0446414!16s%2Fg%2F11jj5rwnhb!19sChIJlX3IW81t1moRi9b-KsctaWk?authuser=0&hl=en&rclk=1,Bayside PoolTech,,Pool cleaning service,61421089964,baysidepooltech.com.au,Claimed,-37.9444184,145.0446414,12/11/2023 11:06
https://www.google.ca/maps/place/Beaches+Pool+Care+and+maintenance/data=!4m7!3m6!1s0x845d39d39fc2e257:0xa9074df6e7cc165e!8m2!3d-33.6631684!4d151.2179056!16s%2Fg%2F11jz7yvyrg!19sChIJV-LCn9M5XYQRXhbM5_ZNB6k?authuser=0&hl=en&rclk=1,Beaches Pool Care and maintenance,5,Pool cleaning service,61488815251,beachespoolcleaning.com.au,Claimed,-33.6631684,151.2179056,12/11/2023 11:06
https://www.google.ca/maps/place/Bells+Pool+Service/data=!4m7!3m6!1s0x6ad5c5ed8d4162ed:0xa10b2ced26337eaa!8m2!3d-38.3027888!4d145.0097894!16s%2Fg%2F11ghfrnnts!19sChIJ7WJBje3F1WoRqn4zJu0sC6E?authuser=0&hl=en&rclk=1,Bells Pool Service,3,Swimming pool repair service,61434092319,bellspoolservice.com.au,Claimed,-38.3027888,145.0097894,12/11/2023 11:06
https://www.google.ca/maps/place/Beyond+pool+and+property+services/data=!4m7!3m6!1s0x2a32bdcac1edd60f:0x32a3e245ade6b7f0!8m2!3d-32.0400639!4d115.9865072!16s%2Fg%2F11h3ckys28!19sChIJD9btwcq9MioR8LfmrUXiozI?authuser=0&hl=en&rclk=1,Beyond pool and property services,4.7,Swimming pool repair service,61448555211,beyondpoolandproperty.com.au,Claimed,-32.0400639,115.9865072,12/11/2023 11:07
https://www.google.ca/maps/place/Bill+Paton%27s+Pool+Service/data=!4m7!3m6!1s0x6b215f71fc074727:0x4a4476730ccc0db9!8m2!3d-36.1718364!4d147.08237!16s%2Fg%2F1vyxjl2h!19sChIJJ0cH_HFfIWsRuQ3MDHN2REo?authuser=0&hl=en&rclk=1,Bill Paton's Pool Service,,Swimming pool contractor,61418691183,billpatonspoolservice.com,Claimed,-36.1718364,147.08237,12/11/2023 11:08
https://www.google.ca/maps/place/Blu+Pool+Maintenance+%26+Repairs./data=!4m7!3m6!1s0x6b0d556c09aed91f:0x3c1ba8a04b16f73b!8m2!3d-33.762344!4d151.2955908!16s%2Fg%2F1tg5c7mh!19sChIJH9muCWxVDWsRO_cWS6CoGzw?authuser=0&hl=en&rclk=1,Blu Pool Maintenance & Repairs.,,Pool cleaning service,61415391515,blupool.com.au,Claimed,-33.762344,151.2955908,12/11/2023 11:08
https://www.google.ca/maps/place/Blue+Gum+Pool+%26+Spa+Service/data=!4m7!3m6!1s0x2bcd57671f4a06a3:0x339ec9c45239520e!8m2!3d-32.0400639!4d115.9615356!16s%2Fg%2F11qqqmsd_2!19sChIJowZKH2dXzSsRDlI5UsTJnjM?authuser=0&hl=en&rclk=1,Blue Gum Pool & Spa Service,,Pool cleaning service,61408951417,bluegumpools.com,Claimed,-32.0400639,115.9615356,12/11/2023 11:08
https://www.google.ca/maps/place/Blue+Lizard+Pool+%26+Garden+Services/data=!4m7!3m6!1s0x4631fafa7eb6f4a1:0xd31f12c7452489ec!8m2!3d-35.0879302!4d149.3078595!16s%2Fg%2F11s5vjn8nn!19sChIJofS2fvr6MUYR7IkkRccSH9M?authuser=0&hl=en&rclk=1,Blue Lizard Pool & Garden Services,5,Pool cleaning service,61415856576,bluelizardservices.com.au,Claimed,-35.0879302,149.3078595,12/11/2023 11:08
https://www.google.ca/maps/place/Blue+Pools+and+Spas/data=!4m7!3m6!1s0x6ad6679677c4cc05:0x7217374670ab1124!8m2!3d-37.8442466!4d144.9441697!16s%2Fg%2F11h_trr6r_!19sChIJBczEd5Zn1moRJBGrcEY3F3I?authuser=0&hl=en&rclk=1,Blue Pools and Spas,4.8,Swimming pool contractor,61459779942,bluepoolsandspas.com.au,Claimed,-37.8442466,144.9441697,12/11/2023 11:09
https://www.google.ca/maps/place/Bluewater+Pool+%26+Pump+Service/data=!4m7!3m6!1s0x6b1285ec3eb12b17:0x57338bd0518a922f!8m2!3d-33.743034!4d150.693547!16s%2Fg%2F1td65gd4!19sChIJFyuxPuyFEmsRL5KKUdCLM1c?authuser=0&hl=en&rclk=1,Bluewater Pool & Pump Service,4.6,Well drilling contractor,61412273292,,Unclaimed,-33.743034,150.693547,12/11/2023 11:09
https://www.google.ca/maps/place/Blueys+Pool+Service/data=!4m7!3m6!1s0x6b12c7c39c3ce48d:0x44af96e0d794a744!8m2!3d-34.0559527!4d151.1255042!16s%2Fg%2F1tdgp_0_!19sChIJjeQ8nMPHEmsRRKeU1-CWr0Q?authuser=0&hl=en&rclk=1,Blueys Pool Service,1,Swimming pool contractor,61415056275,blueyspoolservice.com.au,Unclaimed,-34.0559527,151.1255042,12/11/2023 11:09
https://www.google.ca/maps/place/Bluezone+Pool+%26+Spa+Services/data=!4m7!3m6!1s0x6ab13de372e42089:0x1ef3fcfcb281db32!8m2!3d-35.1107207!4d138.6198212!16s%2Fg%2F11mqd87ryq!19sChIJiSDkcuM9sWoRMtuBsvz88x4?authuser=0&hl=en&rclk=1,Bluezone Pool & Spa Services,3,Pool cleaning service,61400845551,,Claimed,-35.1107207,138.6198212,12/11/2023 11:09
https://www.google.ca/maps/place/Brindabella+Pools/data=!4m7!3m6!1s0x80ec80ce24de397:0xc79d0c0707d5fee2!8m2!3d-35.2942236!4d149.1550476!16s%2Fg%2F11sczkt556!19sChIJl-NN4gzIDggR4v7VBwcMncc?authuser=0&hl=en&rclk=1,Brindabella Pools,,Swimming pool contractor,61413437127,brindabellapools.com.au,Claimed,-35.2942236,149.1550476,12/11/2023 11:10
https://www.google.ca/maps/place/Campbelltown+Pools+and+Spas/data=!4m7!3m6!1s0x6b13014dc9409fdb:0xe5f7edf6f0be432b!8m2!3d-34.2922499!4d150.6116918!16s%2Fg%2F11q2t2dr6s!19sChIJ259AyU0BE2sRK0O-8Pbt9-U?authuser=0&hl=en&rclk=1,Campbelltown Pools and Spas,5,Swimming pool contractor,61410430364,campbelltownpools.com.au,Claimed,-34.2922499,150.6116918,12/11/2023 11:16
https://www.google.ca/maps/place/Capricorn+Pools+-+Mobile+Pool+Service+-+Gold+Coast/data=!4m7!3m6!1s0x6b90fea2e0bd701d:0xe0ee5c393952e47b!8m2!3d-27.9777925!4d153.36038!16s%2Fg%2F11f0wn79m6!19sChIJHXC94KL-kGsRe-RSOTlc7uA?authuser=0&hl=en&rclk=1,Capricorn Pools - Mobile Pool Service - Gold Coast,5,Swimming pool contractor,61417634397,,Claimed,-27.9777925,153.36038,12/11/2023 11:17
https://www.google.ca/maps/place/Central+Coast+Pools+Service+%26+Installations/data=!4m7!3m6!1s0x43269fe3f078fce5:0xc827ecc3f2d4492e!8m2!3d-33.2247216!4d151.3647582!16s%2Fg%2F11rdbsg_q7!19sChIJ5fx48OOfJkMRLknU8sPsJ8g?authuser=0&hl=en&rclk=1,Central Coast Pools Service & Installations,5,Swimming pool contractor,61423768713,ccpsi.com.au,Claimed,-33.2247216,151.3647582,12/11/2023 11:18
https://www.google.ca/maps/place/Central+Mobile+Pool+Services/data=!4m7!3m6!1s0x6b9383f445fefda9:0x4891678096b35a4!8m2!3d-26.6064825!4d153.0741567!16s%2Fg%2F11lgz26tk5!19sChIJqf3-RfSDk2sRpDVrCXgWiQQ?authuser=0&hl=en&rclk=1,Central Mobile Pool Services,,Pool cleaning service,61423441251,,Claimed,-26.6064825,153.0741567,12/11/2023 11:18
https://www.google.ca/maps/place/Clarity+Pool+Care/data=!4m7!3m6!1s0x6ad66ef38dd698cd:0xf9a1ea928e3fe8b7!8m2!3d-37.9586456!4d145.0235756!16s%2Fg%2F1tg5c7h1!19sChIJzZjWjfNu1moRt-g_jpLqofk?authuser=0&hl=en&rclk=1,Clarity Pool Care,4.4,Swimming pool contractor,61478954270,,Unclaimed,-37.9586456,145.0235756,12/11/2023 11:21
https://www.google.ca/maps/place/Clarity+Pool+Services/data=!4m7!3m6!1s0x6b937604f13a419b:0x2f368f03e4f5fe10!8m2!3d-26.7079226!4d152.8509521!16s%2Fg%2F11gfb3_92g!19sChIJm0E68QR2k2sREP715AOPNi8?authuser=0&hl=en&rclk=1,Clarity Pool Services,4.7,Pool cleaning service,61400976004,facebook.com,Claimed,-26.7079226,152.8509521,12/11/2023 11:21
https://www.google.ca/maps/place/Clean+Flow+Pool+Care/data=!4m7!3m6!1s0x6b0d7d44a0013b65:0x2a09db920a9f9995!8m2!3d-33.5580997!4d150.6874324!16s%2Fg%2F1tsypy7x!19sChIJZTsBoER9DWsRlZmfCpLbCSo?authuser=0&hl=en&rclk=1,Clean Flow Pool Care,5,Swimming pool contractor,61408477103,cleanflowpoolcare.com.au,Claimed,-33.5580997,150.6874324,12/11/2023 11:22
https://www.google.ca/maps/place/Clean+My+Pool+Brisbane/data=!4m7!3m6!1s0x6ad688ced1147b49:0xbd41e2471e2037c6!8m2!3d-37.8926637!4d144.5901905!16s%2Fg%2F11b674hzbg!19sChIJSXsU0c6I1moRxjcgHkfiQb0?authuser=0&hl=en&rclk=1,Clean My Pool Brisbane,5,Pool cleaning service,61416607737,,Claimed,-37.8926637,144.5901905,12/11/2023 11:22
https://www.google.ca/maps/place/Clean+Pool+Sydney/data=!4m7!3m6!1s0x6b12c0bc99edcc41:0x6a7c0d872422a9e1!8m2!3d-34.7939514!4d149.5581251!16s%2Fg%2F11cjj2ttkr!19sChIJQcztmbzAEmsR4akiJIcNfGo?authuser=0&hl=en&rclk=1,Clean Pool Sydney,5,Pool cleaning service,61410187815,cleanpoolsydney.com.au,Claimed,-34.7939514,149.5581251,12/11/2023 11:22
https://www.google.ca/maps/place/Clean+Pools+By+George/data=!4m7!3m6!1s0x6b12b1b1cfa095bd:0x281e5d3cb5c23936!8m2!3d-33.9171649!4d151.223838!16s%2Fg%2F11n13r_8fb!19sChIJvZWgz7GxEmsRNjnCtTxdHig?authuser=0&hl=en&rclk=1,Clean Pools By George,5,Pool cleaning service,61404106611,,Claimed,-33.9171649,151.223838,12/11/2023 11:22
https://www.google.ca/maps/place/Clean+Pools+R+Us+-+Newcastle/data=!4m7!3m6!1s0x6b733dc7dab4a377:0x3efd80403ea124b5!8m2!3d-32.3530363!4d151.3988026!16s%2Fg%2F11cn2lzqz9!19sChIJd6O02sc9c2sRtSShPkCA_T4?authuser=0&hl=en&rclk=1,Clean Pools R Us - Newcastle,5,Pool cleaning service,61400152585,cleanpoolsrus.com.au,Claimed,-32.3530363,151.3988026,12/11/2023 11:22
https://www.google.ca/maps/place/Clean+Pools+R+Us+Castle+Hill/data=!4m7!3m6!1s0x6b12a34d488f197d:0xad269a973d44f8bd!8m2!3d-33.7784153!4d150.9729876!16s%2Fg%2F11q1vs6hvx!19sChIJfRmPSE2jEmsRvfhEPZeaJq0?authuser=0&hl=en&rclk=1,Clean Pools R Us Castle Hill,4.7,Pool cleaning service,61411204444,cleanpoolsrus.com.au,Claimed,-33.7784153,150.9729876,12/11/2023 11:22
https://www.google.ca/maps/place/Clean+Pools+R+Us+Hills/data=!4m7!3m6!1s0x6b12994deb575d19:0x16de241765c2a9ee!8m2!3d-33.7768264!4d150.934893!16s%2Fg%2F11pf4zs43n!19sChIJGV1X602ZEmsR7qnCZRck3hY?authuser=0&hl=en&rclk=1,Clean Pools R Us Hills,5,Pool cleaning service,61499559604,cleanpoolsrus.com.au,Claimed,-33.7768264,150.934893,12/11/2023 11:22
https://www.google.ca/maps/place/Clean+Pools+R+Us+Hunter/data=!4m7!3m6!1s0x6b0ccdf13e48e8a9:0xc2415319f1765ac3!8m2!3d-32.895415!4d151.2710813!16s%2Fg%2F11sh5zbn60!19sChIJqehIPvHNDGsRw1p28RlTQcI?authuser=0&hl=en&rclk=1,Clean Pools R Us Hunter,3.9,Pool cleaning service,61488013330,cleanpoolsrus.com.au,Claimed,-32.895415,151.2710813,12/11/2023 11:22
https://www.google.ca/maps/place/Clean+Pools+R+Us+Inner+West/data=!4m7!3m6!1s0x6b12b1ef7dfeb183:0x6b63c85a577102d8!8m2!3d-33.8843059!4d151.1767932!16s%2Fg%2F11lk9ff7cv!19sChIJg7H-fe-xEmsR2AJxV1rIY2s?authuser=0&hl=en&rclk=1,Clean Pools R Us Inner West,4.5,Pool cleaning service,61404888100,cleanpoolsrus.com.au,Claimed,-33.8843059,151.1767932,12/11/2023 11:23
https://www.google.ca/maps/place/Clean+Pools+R+Us+Liverpool/data=!4m7!3m6!1s0x6b12979dcc45f813:0x7fe67a65f0498c9d!8m2!3d-33.843721!4d150.8234412!16s%2Fg%2F11gmwdlc90!19sChIJE_hFzJ2XEmsRnYxJ8GV65n8?authuser=0&hl=en&rclk=1,Clean Pools R Us Liverpool,5,Pool cleaning service,61418268342,cleanpoolsrus.com.au,Claimed,-33.843721,150.8234412,12/11/2023 11:23
https://www.google.ca/maps/place/Clean+Pools+R+Us+Macarthur+Narellan/data=!4m7!3m6!1s0x6b129304de2e0f13:0x38868c0006cd59d0!8m2!3d-33.9357473!4d150.8314423!16s%2Fg%2F11h800cv9s!19sChIJEw8u3gSTEmsR0FnNBgCMhjg?authuser=0&hl=en&rclk=1,Clean Pools R Us Macarthur Narellan,4.2,Swimming pool repair service,61433311951,cleanpoolsrus.com.au,Claimed,-33.9357473,150.8314423,12/11/2023 11:23
https://www.google.ca/maps/place/Clean+Pools+R+Us+Northern+Beaches/data=!4m7!3m6!1s0x6b0d55f154fae9c3:0x99d7ae72a6b06cc!8m2!3d-33.7081051!4d151.3006009!16s%2Fg%2F11hzyydr6f!19sChIJw-n6VPFVDWsRzAZrKud6nQk?authuser=0&hl=en&rclk=1,Clean Pools R Us Northern Beaches,3.9,Pool cleaning service,61479017787,cleanpoolsrus.com.au,Claimed,-33.7081051,151.3006009,12/11/2023 11:23
https://www.google.ca/maps/place/Clean+Pools+R+Us+Sutherland+Shire/data=!4m7!3m6!1s0x6b129381db086d51:0xdf96ea174ef68053!8m2!3d-33.9104917!4d150.8382901!16s%2Fg%2F11m_cjyhfq!19sChIJUW0I24GTEmsRU4D2Thfqlt8?authuser=0&hl=en&rclk=1,Clean Pools R Us Sutherland Shire,5,Pool cleaning service,61418652577,cleanpoolsrus.com.au,Claimed,-33.9104917,150.8382901,12/11/2023 11:23
https://www.google.ca/maps/place/Clean-a-Pool+Gold+Coast/data=!4m7!3m6!1s0x6b90ff102b8f8a8b:0x9e25fc78ef6425a2!8m2!3d-28.0624284!4d153.3864238!16s%2Fg%2F11h0ms4kyh!19sChIJi4qPKxD_kGsRoiVk73j8JZ4?authuser=0&hl=en&rclk=1,Clean-a-Pool Gold Coast,,Pool cleaning service,61414293325,cleanapoolgc.com.au,Claimed,-28.0624284,153.3864238,12/11/2023 11:24
https://www.google.ca/maps/place/CleanPools/data=!4m7!3m6!1s0x6ad643c9618749fd:0x9fde7107f6a32507!8m2!3d-37.8211102!4d145.0266229!16s%2Fg%2F11ghdj47zc!19sChIJ_UmHYclD1moRByWj9gdx3p8?authuser=0&hl=en&rclk=1,CleanPools,4.9,Swimming pool repair service,61409774687,cleanpools.com.au,Claimed,-37.8211102,145.0266229,12/11/2023 11:24
https://www.google.ca/maps/place/CleanTech+Pools/data=!4m7!3m6!1s0x6b12bb465309255f:0xacd12d63ee913089!8m2!3d-33.877381!4d151.0820048!16s%2Fg%2F11h0gyymz5!19sChIJXyUJU0a7EmsRiTCR7mMt0aw?authuser=0&hl=en&rclk=1,CleanTech Pools,4.7,Swimming pool repair service,61424597914,cleantechpools.com.au,Claimed,-33.877381,151.0820048,12/11/2023 11:24
https://www.google.ca/maps/place/Clear+Blu+Pools+-+Pool+Cleaning+Melbourne/data=!4m7!3m6!1s0x63cc3da36de2e49:0x9f33f461b396b043!8m2!3d-37.9725665!4d145.0531353!16s%2Fg%2F11r_tdqcbx!19sChIJSS7eNtrDPAYRQ7CWs2H0M58?authuser=0&hl=en&rclk=1,Clear Blu Pools - Pool Cleaning Melbourne,5,Pool cleaning service,61411884768,clearblupools.com.au,Claimed,-37.9725665,145.0531353,12/11/2023 11:24
https://www.google.ca/maps/place/Clear+Pools+Canberra/data=!4m7!3m6!1s0x29ac0057b8a01f99:0x9aa5f3c8b688e825!8m2!3d-35.3139797!4d149.1297825!16s%2Fg%2F11v44yrfgs!19sChIJmR-guFcArCkRJeiItsjzpZo?authuser=0&hl=en&rclk=1,Clear Pools Canberra,5,Swimming pool contractor,61474456166,clearpoolscanberra.com.au,Claimed,-35.3139797,149.1297825,12/11/2023 11:24
https://www.google.ca/maps/place/Clearwater+Pool+Maintenance/data=!4m7!3m6!1s0x68491c82142984df:0xae8fab60bdba652b!8m2!3d-33.7769082!4d150.9661444!16s%2Fg%2F11scs8j6w5!19sChIJ34QpFIIcSWgRK2W6vWCrj64?authuser=0&hl=en&rclk=1,Clearwater Pool Maintenance,,Pool cleaning service,61426860885,clearwaterpoolmaintenance.com.au,Claimed,-33.7769082,150.9661444,12/11/2023 11:24
https://www.google.ca/maps/place/Coal+Coast+Pool+Care/data=!4m7!3m6!1s0x2967d5834cb41eef:0xd4286ada08223945!8m2!3d-34.1683374!4d151.0531471!16s%2Fg%2F11ss_mm4sg!19sChIJ7x60TIPVZykRRTkiCNpqKNQ?authuser=0&hl=en&rclk=1,Coal Coast Pool Care,5,Pool cleaning service,61456088851,coalcoastpoolcare.com.au,Claimed,-34.1683374,151.0531471,12/11/2023 11:25
https://www.google.ca/maps/place/Coast+Pool+Supplies/data=!4m7!3m6!1s0x40f0eb75281f9c39:0xcb5459effd50d248!8m2!3d-32.205415!4d136.1073692!16s%2Fg%2F11rrs00_fx!19sChIJOZwfKHXr8EARSNJQ_e9ZVMs?authuser=0&hl=en&rclk=1,Coast Pool Supplies,5,Swimming pool supply store,61493022022,coastpoolsupplies.com.au,Claimed,-32.205415,136.1073692,12/11/2023 11:25
https://www.google.ca/maps/place/Coastal+Pool+Services+Perth/data=!4m7!3m6!1s0xa28a197d6e6b1a3b:0x389c574ace1f506e!8m2!3d-31.7641821!4d115.7472218!16s%2Fg%2F11td5rh1nr!19sChIJOxprbn0ZiqIRblAfzkpXnDg?authuser=0&hl=en&rclk=1,Coastal Pool Services Perth,5,Pool cleaning service,61438459490,coastalpoolservices.com.au,Claimed,-31.7641821,115.7472218,12/11/2023 11:26
https://www.google.ca/maps/place/Coastwide+Pools/data=!4m7!3m6!1s0xcd773ee372bb6bb:0x31d1f7c4a8751843!8m2!3d-33.3146575!4d151.3111836!16s%2Fg%2F11rdb7srl9!19sChIJu7YrN-5z1wwRQxh1qMT30TE?authuser=0&hl=en&rclk=1,Coastwide Pools,5,Pool cleaning service,61487919744,coastwidepools.com.au,Claimed,-33.3146575,151.3111836,12/11/2023 11:26
https://www.google.ca/maps/place/Complete+Pool+Safety+Inspections/data=!4m7!3m6!1s0x6b9375f36e3e395f:0x3af817d523e8086d!8m2!3d-26.6962527!4d153.1303921!16s%2Fg%2F11g9ntfkqv!19sChIJXzk-bvN1k2sRbQjoI9UX-Do?authuser=0&hl=en&rclk=1,Complete Pool Safety Inspections,5,Building inspector,61402374337,,Unclaimed,-26.6962527,153.1303921,12/11/2023 11:28
https://www.google.ca/maps/place/CooWee+Pool+Renovations/data=!4m7!3m6!1s0x6ad63c487802372f:0x7e97ec89cde437c!8m2!3d-36.5895056!4d145.4691788!16s%2Fg%2F11dxsb1442!19sChIJLzcCeEg81moRfEPenMh-6Qc?authuser=0&hl=en&rclk=1,CooWee Pool Renovations,5,Swimming pool repair service,61434128999,cooweepoolrenovations.com.au,Claimed,-36.5895056,145.4691788,12/11/2023 11:28
https://www.google.ca/maps/place/Cool+Blue+Pools+-+Pool+Shop+Warriewood/data=!4m7!3m6!1s0x6b12abc3e7922597:0x189b9d5f1b6419db!8m2!3d-33.6932338!4d151.3026007!16s%2Fg%2F1q2vxjm73!19sChIJlyWS58OrEmsR2xlkG1-dmxg?authuser=0&hl=en&rclk=1,Cool Blue Pools - Pool Shop Warriewood,4.2,Swimming pool supply store,61404191888,coolbluepools.com.au,Claimed,-33.6932338,151.3026007,12/11/2023 11:29
https://www.google.ca/maps/place/Cool+Pool+Care/data=!4m7!3m6!1s0x6b93fd81b5204161:0xca0585e307d29037!8m2!3d-27.3821429!4d152.9931964!16s%2Fg%2F1tfppwd8!19sChIJYUEgtYH9k2sRN5DSB-OFBco?authuser=0&hl=en&rclk=1,Cool Pool Care,5,Swimming pool contractor,61411383824,coolpoolcare.com,Claimed,-27.3821429,152.9931964,12/11/2023 11:29
https://www.google.ca/maps/place/Copper+Coast+Pool+Care/data=!4m7!3m6!1s0x6abaa91938267c7b:0x1df8e03648d1637e!8m2!3d-34.0691621!4d137.5919282!16s%2Fg%2F119vj3q8j!19sChIJe3wmOBmpumoRfmPRSDbg-B0?authuser=0&hl=en&rclk=1,Copper Coast Pool Care,3,Swimming pool repair service,61447758537,coppercoast.sa.gov.au,Unclaimed,-34.0691621,137.5919282,12/11/2023 11:30
https://www.google.ca/maps/place/Country+Wide+Pools+%26+Spas/data=!4m7!3m6!1s0x6b21597aaaaaaaab:0xde42c39e2f988742!8m2!3d-36.1303483!4d146.8307191!16s%2Fg%2F1tscp50_!19sChIJq6qqqnpZIWsRQoeYL57DQt4?authuser=0&hl=en&rclk=1,Country Wide Pools & Spas,5,Swimming pool supply store,61413893652,cwpools.com.au,Claimed,-36.1303483,146.8307191,12/11/2023 11:30
https://www.google.ca/maps/place/Crownz+Pools/data=!4m7!3m6!1s0x6b13a98adc3e9e7f:0xced19f846867ac01!8m2!3d-34.3072548!4d150.5176179!16s%2Fg%2F11p5j8hbw0!19sChIJf54-3IqpE2sRAaxnaISf0c4?authuser=0&hl=en&rclk=1,Crownz Pools,5,Swimming pool supply store,61404524612,crownz.com.au,Claimed,-34.3072548,150.5176179,12/11/2023 11:31
https://www.google.ca/maps/place/Crystal+Clear+Pool+Care/data=!4m7!3m6!1s0x2a329754bdd93587:0xeb813104243058a7!8m2!3d-32.0400639!4d115.9615356!16s%2Fg%2F11m_y18955!19sChIJhzXZvVSXMioRp1gwJAQxges?authuser=0&hl=en&rclk=1,Crystal Clear Pool Care,5,Pool cleaning service,61423610625,crystalclearpools.com.au,Claimed,-32.0400639,115.9615356,12/11/2023 11:31
https://www.google.ca/maps/place/Crystal+Pool+%26+Spa+Services+Perth/data=!4m7!3m6!1s0x2a327d3c2d28a85b:0x5bf384bc38b4abc3!8m2!3d-32.494934!4d115.7582361!16s%2Fg%2F11h4zq7327!19sChIJW6goLTx9MioRw6u0OLyE81s?authuser=0&hl=en&rclk=1,Crystal Pool & Spa Services Perth,5,Swimming pool repair service,61497770487,,Claimed,-32.494934,115.7582361,12/11/2023 11:31
https://www.google.ca/maps/place/D%26M+Poolcare/data=!4m7!3m6!1s0x2bcd581825881765:0xce019ec071b80676!8m2!3d-31.60085!4d115.684289!16s%2Fg%2F11bbrlsqrk!19sChIJZReIJRhYzSsRdga4ccCeAc4?authuser=0&hl=en&rclk=1,D&M Poolcare,5,Swimming pool repair service,61424997631,,Claimed,-31.60085,115.684289,12/11/2023 11:32
https://www.google.ca/maps/place/D+%26+J+Pool+Services/data=!4m7!3m6!1s0x6b72db3992100cf3:0x95109060becf02aa!8m2!3d-33.2271354!4d151.361761!16s%2Fg%2F11gpn2qr3f!19sChIJ8wwQkjnbcmsRqgLPvmCQEJU?authuser=0&hl=en&rclk=1,D & J Pool Services,,Pool cleaning service,61418436173,,Claimed,-33.2271354,151.361761,12/11/2023 11:32
https://www.google.ca/maps/place/Dads+Pool+Service/data=!4m7!3m6!1s0x6ad6257cc31250c1:0x3b294ada60adf1fe!8m2!3d-37.8351178!4d145.2156526!16s%2Fg%2F11llfmn91p!19sChIJwVASw3wl1moR_vGtYNpKKTs?authuser=0&hl=en&rclk=1,Dads Pool Service,,Pool cleaning service,61414763218,m.facebook.com,Claimed,-37.8351178,145.2156526,12/11/2023 11:33
https://www.google.ca/maps/place/Damian%27s+Pool+Solutions/data=!4m7!3m6!1s0x6ad638c055f59a89:0x2b899294df717bfb!8m2!3d-37.7827008!4d145.2168046!16s%2Fg%2F11b62w1r5t!19sChIJiZr1VcA41moR-3tx35SSiSs?authuser=0&hl=en&rclk=1,Damian's Pool Solutions,5,Pool cleaning service,61403034461,,Claimed,-37.7827008,145.2168046,12/11/2023 11:33
https://www.google.ca/maps/place/Danny%E2%80%99s+Pool+Resurfacing/data=!4m7!3m6!1s0x4d1ef032e1b322c5:0x56dbb82ddc817d66!8m2!3d-12.4717814!4d130.9967925!16s%2Fg%2F11tn0g4dbw!19sChIJxSKz4TLwHk0RZn2B3C2421Y?authuser=0&hl=en&rclk=1,Dannys Pool Resurfacing,5,Swimming pool repair service,61411084695,dannyspoolresurfacing.com.au,Claimed,-12.4717814,130.9967925,12/11/2023 11:34
https://www.google.ca/maps/place/Darwin+Concrete+Pools/data=!4m7!3m6!1s0x2cc0bd0898a2de4f:0x7944a02c10f8c6a6!8m2!3d-12.4535851!4d130.9806912!16s%2Fg%2F11grv2vlny!19sChIJT96imAi9wCwRpsb4ECygRHk?authuser=0&hl=en&rclk=1,Darwin Concrete Pools,5,Swimming pool,61407476408,darwin-concrete-pools.business.site,Claimed,-12.4535851,130.9806912,12/11/2023 11:34
https://www.google.ca/maps/place/Deep+Blue+Pool+Services/data=!4m7!3m6!1s0x6b15c0476913568d:0xf1eee8ea22cac1fd!8m2!3d-35.6339007!4d149.7195826!16s%2Fg%2F11c5_bf3dc!19sChIJjVYTaUfAFWsR_cHKIuro7vE?authuser=0&hl=en&rclk=1,Deep Blue Pool Services,4.5,Swimming pool repair service,61474865321,,Claimed,-35.6339007,149.7195826,12/11/2023 11:35
https://www.google.ca/maps/place/Deep+Blue+Pools+%26+Spas/data=!4m7!3m6!1s0x9c30feccd944441:0xafe334fb8e95559a!8m2!3d-33.8482439!4d150.9319747!16s%2Fg%2F11rssjm69v!19sChIJQUSUzewPwwkRmlWVjvs0468?authuser=0&hl=en&rclk=1,Deep Blue Pools & Spas,,Swimming pool contractor,61420888775,deepbluepoolsandspas.com.au,Claimed,-33.8482439,150.9319747,12/11/2023 11:35
https://www.google.ca/maps/place/Deepend+pool+and+spa+service/data=!4m7!3m6!1s0x6b12ba5dafd0bebf:0xfbd1c4b2723e76ac!8m2!3d-33.9141686!4d151.1130535!16s%2Fg%2F1hc3kxhkn!19sChIJv77Qr126EmsRrHY-crLE0fs?authuser=0&hl=en&rclk=1,Deepend pool and spa service,4,Swimming pool contractor,61433338910,facebook.com,Claimed,-33.9141686,151.1130535,12/11/2023 11:35
https://www.google.ca/maps/place/Deluxe+Pool+Care+and+Heating/data=!4m7!3m6!1s0x2a3286a950901b1d:0x12efeb1e7b617c0d!8m2!3d-32.36213!4d115.76395!16s%2Fg%2F11h0918sd!19sChIJHRuQUKmGMioRDXxhex7r7xI?authuser=0&hl=en&rclk=1,Deluxe Pool Care and Heating,4.9,Swimming pool contractor,61417952484,deluxepoolcareandheating.com.au,Claimed,-32.36213,115.76395,12/11/2023 11:35
https://www.google.ca/maps/place/Desert+Pool+Care/data=!4m7!3m6!1s0x2a4d672b6186ffaf:0xe5d84c90682b7345!8m2!3d-30.7537839!4d121.4604782!16s%2Fg%2F11ny4tnzsv!19sChIJr_-GYStnTSoRRXMraJBM2OU?authuser=0&hl=en&rclk=1,Desert Pool Care,5,Swimming pool supply store,61429350977,facebook.com,Claimed,-30.7537839,121.4604782,12/11/2023 11:36
https://www.google.ca/maps/place/Design+Pools/data=!4m7!3m6!1s0x6b12b84f96dde2f7:0x644d2477811bb6ff!8m2!3d-33.995079!4d151.1073619!16s%2Fg%2F11bw50sy7d!19sChIJ9-Ldlk-4EmsR_7YbgXckTWQ?authuser=0&hl=en&rclk=1,Design Pools,5,Swimming pool contractor,61418212993,designpools.com.au,Claimed,-33.995079,151.1073619,12/11/2023 11:36
https://www.google.ca/maps/place/Diamond+Finish+Pools/data=!4m7!3m6!1s0x6b12edd1767978df:0x2c6ae228c88bec53!8m2!3d-34.0315864!4d150.8501988!16s%2Fg%2F11gr5yf55z!19sChIJ33h5dtHtEmsRU-yLyCjiaiw?authuser=0&hl=en&rclk=1,Diamond Finish Pools,5,Hot tub store,61430129364,diamondfinishpools.wixsite.com,Claimed,-34.0315864,150.8501988,12/11/2023 11:37
https://www.google.ca/maps/place/Diamond+Pool+Products/data=!4m7!3m6!1s0x2cc0bd8b500014f5:0x267fc3a7d7db4dd9!8m2!3d-12.5509153!4d130.9440569!16s%2Fg%2F11jvghlcpx!19sChIJ9RQAUIu9wCwR2U3b16fDfyY?authuser=0&hl=en&rclk=1,Diamond Pool Products,5,Pool cleaning service,61438653975,diamondpoolproducts.com.au,Claimed,-12.5509153,130.9440569,12/11/2023 11:37
https://www.google.ca/maps/place/Diverse+Poolcare/data=!4m7!3m6!1s0x6b215929c1ea50b5:0xaebb2272e86d147a!8m2!3d-36.1309442!4d146.9008336!16s%2Fg%2F11h59pcbf6!19sChIJtVDqwSlZIWsRehRt6HIiu64?authuser=0&hl=en&rclk=1,Diverse Poolcare,5,Pool cleaning service,61413902037,diversepoolcare.com.au,Claimed,-36.1309442,146.9008336,12/11/2023 11:38
https://www.google.ca/maps/place/Divine+Pools+and+Spas/data=!4m7!3m6!1s0x625543d971b21c69:0x5d01e158003e95f9!8m2!3d-33.3146575!4d151.3111836!16s%2Fg%2F11spcdhxzd!19sChIJaRyycdlDVWIR-ZU-AFjhAV0?authuser=0&hl=en&rclk=1,Divine Pools and Spas,,Swimming pool contractor,61434082817,divinelandscapecreations.com.au,Claimed,-33.3146575,151.3111836,12/11/2023 11:38
https://www.google.ca/maps/place/Duncraig+Pools+%26+Spa+Maintenance/data=!4m7!3m6!1s0x8a28ef26c6c3e99b:0xfd18addf2d6f4671!8m2!3d-31.8311563!4d115.778623!16s%2Fg%2F11q3_p_dcg!19sChIJm-nDxibvKIoRcUZvLd-tGP0?authuser=0&hl=en&rclk=1,Duncraig Pools & Spa Maintenance,,Pool cleaning service,61477529185,duncraigpools.com,Claimed,-31.8311563,115.778623,12/11/2023 11:41
https://www.google.ca/maps/place/Duraglaze+Pool+Resurfacing/data=!4m7!3m6!1s0x6b0d54f99c810071:0xf6ddb97fe73eb03a!8m2!3d-33.8482439!4d150.9319747!16s%2Fg%2F11c1p69jnt!19sChIJcQCBnPlUDWsROrA-53-53fY?authuser=0&hl=en&rclk=1,Duraglaze Pool Resurfacing,4.4,Swimming pool repair service,61476168354,duraglaze.com.au,Claimed,-33.8482439,150.9319747,12/11/2023 11:42
https://www.google.ca/maps/place/East+Sydney+Pools/data=!4m7!3m6!1s0x6b12b3dfa234acf7:0x2858aa38043cb553!8m2!3d-33.9124914!4d151.2423977!16s%2Fg%2F11h1rbtnkc!19sChIJ96w0ot-zEmsRU7U8BDiqWCg?authuser=0&hl=en&rclk=1,East Sydney Pools,5,Pool cleaning service,61405681217,,Claimed,-33.9124914,151.2423977,12/11/2023 11:45
https://www.google.ca/maps/place/Eastern+Pool+Care/data=!4m7!3m6!1s0x6b12b234e2b426c5:0x667ed2c0b10351ec!8m2!3d-33.9171649!4d151.223838!16s%2Fg%2F1z3tbx21z!19sChIJxSa04jSyEmsR7FEDscDSfmY?authuser=0&hl=en&rclk=1,Eastern Pool Care,2.5,Swimming pool contractor,61422886232,easternpoolcare.com.au,Claimed,-33.9171649,151.223838,12/11/2023 11:45
https://www.google.ca/maps/place/Easy+Pool+Care+-+Mobile+Service/data=!4m7!3m6!1s0x6ab0cf71d4226e0f:0x2f3cb51788aa9a9a!8m2!3d-35.0175967!4d138.5807656!16s%2Fg%2F11r5nrrnwb!19sChIJD24i1HHPsGoRmpqqiBe1PC8?authuser=0&hl=en&rclk=1,Easy Pool Care - Mobile Service,5,Pool cleaning service,61411763279,easypoolcare.com.au,Claimed,-35.0175967,138.5807656,12/11/2023 11:45
https://www.google.ca/maps/place/Elegant+Pools/data=!4m7!3m6!1s0x6b0d51824f52146b:0x87e301b0a04d0adf!8m2!3d-32.205415!4d136.1073692!16s%2Fg%2F11bttclb8k!19sChIJaxRST4JRDWsR3wpNoLAB44c?authuser=0&hl=en&rclk=1,Elegant Pools,4.5,Swimming pool contractor,61456042277,elegantpools.com.au,Claimed,-32.205415,136.1073692,12/11/2023 11:48
https://www.google.ca/maps/place/Elite+Pool+Servicing/data=!4m7!3m6!1s0x6b13a3f76a806329:0x956c847aee5094d2!8m2!3d-34.4670526!4d150.3548578!16s%2Fg%2F11ggrkdt_n!19sChIJKWOAavejE2sR0pRQ7nqEbJU?authuser=0&hl=en&rclk=1,Elite Pool Servicing,5,Pool cleaning service,61408299336,,Claimed,-34.4670526,150.3548578,12/11/2023 11:48
https://www.google.ca/maps/place/EverClear+Pools+Dubbo/data=!4m7!3m6!1s0x4b32c4424057e575:0x1f561b35c041a92b!8m2!3d-32.2814115!4d148.6043228!16s%2Fg%2F11kp_8r8g4!19sChIJdeVXQELEMksRK6lBwDUbVh8?authuser=0&hl=en&rclk=1,EverClear Pools Dubbo,5,Swimming pool contractor,61412793400,ecpools.com.au,Claimed,-32.2814115,148.6043228,12/11/2023 11:51
https://www.google.ca/maps/place/Excel+Pool+Care/data=!4m7!3m6!1s0x46230cc7a73ab027:0xd73b35187906321a!8m2!3d-28.7078708!4d152.9034783!16s%2Fg%2F11qbtwdv0j!19sChIJJ7A6p8cMI0YRGjIGeRg1O9c?authuser=0&hl=en&rclk=1,Excel Pool Care,5,Pool cleaning service,61467669084,excelpoolcare.com.au,Claimed,-28.7078708,152.9034783,12/11/2023 11:52
https://www.google.ca/maps/place/Ezy+Pool+Care/data=!4m7!3m6!1s0x2cbabef7ee7c5931:0x51f7ce5a5e94c1b9!8m2!3d-14.475083!4d132.286299!16s%2Fg%2F11gfh59x7z!19sChIJMVl87ve-uiwRucGUXlrO91E?authuser=0&hl=en&rclk=1,Ezy Pool Care,3.7,Pool cleaning service,61407934252,ezypoolcare.com.au,Claimed,-14.475083,132.286299,12/11/2023 11:53
https://www.google.ca/maps/place/Fibrestyle+Pool+Resurfacing/data=!4m7!3m6!1s0x6b0d549e0dd572dd:0x651ef77235dbc2e0!8m2!3d-33.6668962!4d151.2983082!16s%2Fg%2F12m90xjy7!19sChIJ3XLVDZ5UDWsR4MLbNXL3HmU?authuser=0&hl=en&rclk=1,Fibrestyle Pool Resurfacing,4.2,Swimming pool contractor,61404467803,fibrestyle.com.au,Claimed,-33.6668962,151.2983082,12/11/2023 11:55
https://www.google.ca/maps/place/First+Choice+Pool+Care/data=!4m7!3m6!1s0x8b2173be647b001d:0x2ad7202b03de0b5e!8m2!3d-33.8006991!4d150.85827!16s%2Fg%2F11sqj2jfrs!19sChIJHQB7ZL5zIYsRXgveAysg1yo?authuser=0&hl=en&rclk=1,First Choice Pool Care,5,Pool cleaning service,61466824385,,Claimed,-33.8006991,150.85827,12/11/2023 11:55
https://www.google.ca/maps/place/First-Rate+Pools+Pty+Ltd/data=!4m7!3m6!1s0x6b164f30c4ff00db:0x76dc1c4b2d51efd9!8m2!3d-35.3139797!4d149.1297825!16s%2Fg%2F11fsn_0l48!19sChIJ2wD_xDBPFmsR2e9RLUsc3HY?authuser=0&hl=en&rclk=1,First-Rate Pools Pty Ltd,3.8,Pool cleaning service,61422629062,firstratepools.com.au,Claimed,-35.3139797,149.1297825,12/11/2023 11:55
https://www.google.ca/maps/place/Five+Star+Pools+-+Darwin+Concrete+Inground+Pools/data=!4m7!3m6!1s0x2cc09177f429d9a1:0xff07a2dbe5ef1ad!8m2!3d-12.438408!4d130.8403745!16s%2Fg%2F11gtbldhlz!19sChIJodkp9HeRwCwRrfFevi168A8?authuser=0&hl=en&rclk=1,Five Star Pools - Darwin Concrete Inground Pools,4.8,Swimming pool contractor,61415733333,fivestarpoolsnt.com,Claimed,-12.438408,130.8403745,12/11/2023 11:56
https://www.google.ca/maps/place/Fix+My+Dolphin/data=!4m7!3m6!1s0x6ad63ec6baec3ee7:0xf329d82704443fa2!8m2!3d-37.8496846!4d145.1991647!16s%2Fg%2F11hbq9fwh1!19sChIJ5z7susY-1moRoj9EBCfYKfM?authuser=0&hl=en&rclk=1,Fix My Dolphin,5,Swimming pool supply store,61427703498,fixmydolphin.com.au,Claimed,-37.8496846,145.1991647,12/11/2023 11:56
https://www.google.ca/maps/place/Fix-A-Pool+Sydney/data=!4m7!3m6!1s0x6b0d5510bb18a4ab:0x40bd32521bc2adb4!8m2!3d-33.7178502!4d151.2971009!16s%2Fg%2F1hc21vdxz!19sChIJq6QYuxBVDWsRtK3CG1IyvUA?authuser=0&hl=en&rclk=1,Fix-A-Pool Sydney,5,Swimming pool repair service,61424640064,fixapoolsydney.com.au,Claimed,-33.7178502,151.2971009,12/11/2023 11:56
https://www.google.ca/maps/place/Fixed+Price+Pool+Services/data=!4m7!3m6!1s0x6b9103334b919dbf:0x3b9fc1292aed9739!8m2!3d-27.9819555!4d153.3702567!16s%2Fg%2F11nlffbhy1!19sChIJv52RSzMDkWsROZftKinBnzs?authuser=0&hl=en&rclk=1,Fixed Price Pool Services,5,Swimming pool repair service,61480270412,fixedpricepoolservices.com.au,Claimed,-27.9819555,153.3702567,12/11/2023 11:56
https://www.google.ca/maps/place/Fresh+Water+Pools/data=!4m7!3m6!1s0x6ad65f05ce8a5b93:0x5a009ce0458f7d6a!8m2!3d-37.75906!4d144.8709003!16s%2Fg%2F11hyfrbfjr!19sChIJk1uKzgVf1moRan2PReCcAFo?authuser=0&hl=en&rclk=1,Fresh Water Pools,5,Pool cleaning service,61422916857,,Claimed,-37.75906,144.8709003,12/11/2023 11:58
"https://www.google.ca/maps/place/GDM+Pools+-+Cleaning,+Equipment+and+Heating/data=!4m7!3m6!1s0x6b12a92da1d0280f:0x629f37d4c19ca00!8m2!3d-33.7407862!4d151.2090311!16s%2Fg%2F11ft1306fr!19sChIJDyjQoS2pEmsRAMoZTH3zKQY?authuser=0&hl=en&rclk=1","GDM Pools - Cleaning, Equipment and Heating",5,Pool cleaning service,61413595242,gdmpooltechnics.com.au,Claimed,-33.7407862,151.2090311,12/11/2023 12:00
https://www.google.ca/maps/place/GREENWEST+POOLS/data=!4m7!3m6!1s0x6b12a543274ecaeb:0x1fdd66c04dd608b1!8m2!3d-33.8506!4d151.1276052!16s%2Fg%2F11snqwtfyp!19sChIJ68pOJ0OlEmsRsQjWTcBm3R8?authuser=0&hl=en&rclk=1,GREENWEST POOLS,4.7,Swimming pool contractor,61410450472,,Unclaimed,-33.8506,151.1276052,12/11/2023 12:01
https://www.google.ca/maps/place/Garry%27s+Pool+%7C+Pool+Maintenance+%7C+Pool+Renovation+%7C+Pool+reapirs/data=!4m7!3m6!1s0x6b129f9331c9cd3b:0x872e9b6e6311c851!8m2!3d-33.8482439!4d150.9319747!16s%2Fg%2F11n5hfxqss!19sChIJO83JMZOfEmsRUcgRY26bLoc?authuser=0&hl=en&rclk=1,Garry's Pool | Pool Maintenance | Pool Renovation | Pool reapirs,4.3,Pool cleaning service,61409241076,,Claimed,-33.8482439,150.9319747,12/11/2023 12:02
https://www.google.ca/maps/place/Get+Wet+Pools/data=!4m7!3m6!1s0x6b23e1f4fef6ee57:0xeeb46d4cdaad66b9!8m2!3d-35.9748604!4d147.2922719!16s%2Fg%2F11gm9r6jg2!19sChIJV-72_vThI2sRuWat2kxttO4?authuser=0&hl=en&rclk=1,Get Wet Pools,3.9,Swimming pool repair service,61491261382,getwetpoolinstalls.com.au,Claimed,-35.9748604,147.2922719,12/11/2023 12:03
https://www.google.ca/maps/place/Gippsland+Custom+Pools/data=!4m7!3m6!1s0x6b2f2f98ff479cf1:0x20d220a52fa9a2ab!8m2!3d-38.0993693!4d147.096165!16s%2Fg%2F1tgpbfqb!19sChIJ8ZxH_5gvL2sRq6KpL6Ug0iA?authuser=0&hl=en&rclk=1,Gippsland Custom Pools,1,Swimming pool contractor,61409054454,gippslandcustompools.com.au,Claimed,-38.0993693,147.096165,12/11/2023 12:04
https://www.google.ca/maps/place/Gippsland+Pool+Maintenance/data=!4m7!3m6!1s0x8adce01b6863f39b:0x5f5db0ecfbb1283d!8m2!3d-38.2174922!4d146.4324398!16s%2Fg%2F11t7tb3hps!19sChIJm_NjaBvg3IoRPSix--ywXV8?authuser=0&hl=en&rclk=1,Gippsland Pool Maintenance,,Swimming pool repair service,61408022261,gippslandpoolmaintenance.com.au,Claimed,-38.2174922,146.4324398,12/11/2023 12:04
https://www.google.ca/maps/place/Glamorous+Pools/data=!4m7!3m6!1s0x6b12abc317ebb5d7:0x19946ad7d32aa511!8m2!3d-33.735424!4d151.2877!16s%2Fg%2F1tf5kt3h!19sChIJ17XrF8OrEmsREaUq09dqlBk?authuser=0&hl=en&rclk=1,Glamorous Pools,5,Swimming pool contractor,61404041151,glamorouspools.com.au,Claimed,-33.735424,151.2877,12/11/2023 12:05
https://www.google.ca/maps/place/Glenmore+Park+Pool+Service/data=!4m7!3m6!1s0x6b128f88ce5fa2f5:0x7e40f4888607fe4c!8m2!3d-33.8002049!4d150.6902347!16s%2Fg%2F11h0sn_n92!19sChIJ9aJfzoiPEmsRTP4Hhoj0QH4?authuser=0&hl=en&rclk=1,Glenmore Park Pool Service,5,Swimming pool repair service,61407250842,,Claimed,-33.8002049,150.6902347,12/11/2023 12:05
https://www.google.ca/maps/place/Gold+Coast+Pool+Inspections/data=!4m7!3m6!1s0x6d0d608f8120c8d5:0x8e200d4edd01ff06!8m2!3d-27.9542216!4d153.3693614!16s%2Fg%2F11trfn881h!19sChIJ1cgggY9gDW0RBv8B3U4NII4?authuser=0&hl=en&rclk=1,Gold Coast Pool Inspections,,Building inspector,61411765270,goldcoastpoolinspections.au,Claimed,-27.9542216,153.3693614,12/11/2023 12:06
https://www.google.ca/maps/place/Green+Garden+Blue+Pool/data=!4m7!3m6!1s0x6b12a9c6ad26123f:0xb3a43507d912174a!8m2!3d-33.8482439!4d150.9319747!16s%2Fg%2F11gbk47rk8!19sChIJPxImrcapEmsRShcS2Qc1pLM?authuser=0&hl=en&rclk=1,Green Garden Blue Pool,,Gardener,61405629242,greengardenbluepool.com.au,Claimed,-33.8482439,150.9319747,12/11/2023 12:08
https://www.google.ca/maps/place/Guseli+Pool+Care/data=!4m7!3m6!1s0x6b13a3407b4b4d4f:0x48e956d966773540!8m2!3d-34.4716002!4d150.3472972!16s%2Fg%2F1pv5vyjm6!19sChIJT01Le0CjE2sRQDV3ZtlW6Ug?authuser=0&hl=en&rclk=1,Guseli Pool Care,4.7,Pool cleaning service,61419202927,guselipoolcare.com.au,Claimed,-34.4716002,150.3472972,12/11/2023 12:09
https://www.google.ca/maps/place/H20+POOL+AND+SPA/data=!4m7!3m6!1s0x6b12ae18d07cc463:0x914d7ec945ce52b5!8m2!3d-33.8843619!4d151.2125983!16s%2Fg%2F11f5blpypm!19sChIJY8R80BiuEmsRtVLORcl-TZE?authuser=0&hl=en&rclk=1,H20 POOL AND SPA,4.5,Swimming pool contractor,61438167215,,Unclaimed,-33.8843619,151.2125983,12/11/2023 12:09
https://www.google.ca/maps/place/H20+Pool+Care/data=!4m7!3m6!1s0x2a327bcde78359f7:0xf3e815d26c5d08f1!8m2!3d-32.5314178!4d115.7480366!16s%2Fg%2F11jm_pd2lh!19sChIJ91mD5817MioR8QhdbNIV6PM?authuser=0&hl=en&rclk=1,H20 Pool Care,,Pool cleaning service,61413402823,,Claimed,-32.5314178,115.7480366,12/11/2023 12:09
https://www.google.ca/maps/place/H2O+Cleaner+and+Clearer/data=!4m7!3m6!1s0x6b12b97c6a34ed5d:0xe7ac70f0edd76f71!8m2!3d-33.996566!4d150.924951!16s%2Fg%2F11gyc2yqks!19sChIJXe00any5EmsRcW_X7fBwrOc?authuser=0&hl=en&rclk=1,H2O Cleaner and Clearer,5,Pool cleaning service,61414527313,h2ocleanerandclearer.com.au,Claimed,-33.996566,150.924951,12/11/2023 12:09
https://www.google.ca/maps/place/H2O+Custom+Pools/data=!4m7!3m6!1s0x6b2159a968dc4bd3:0x68dcdedc7dd020c0!8m2!3d-35.090465!4d148.264931!16s%2Fg%2F11ghnq9dw_!19sChIJ00vcaKlZIWsRwCDQfdze3Gg?authuser=0&hl=en&rclk=1,H2O Custom Pools,5,Swimming pool contractor,61418411161,h2ocustompools.au,Claimed,-35.090465,148.264931,12/11/2023 12:10
https://www.google.ca/maps/place/Handy+Pools+Pty+Ltd/data=!4m7!3m6!1s0x6b12aa7fd5a4f6d3:0xf4796563a61b2cf1!8m2!3d-33.7746927!4d151.1062312!16s%2Fg%2F11c0xn6rmt!19sChIJ0_ak1X-qEmsR8SwbpmNlefQ?authuser=0&hl=en&rclk=1,Handy Pools Pty Ltd,5,Pool cleaning service,61417776151,handypools.com.au,Claimed,-33.7746927,151.1062312,12/11/2023 12:11
https://www.google.ca/maps/place/Hart+Pool+Services/data=!4m7!3m6!1s0x22e27a570f999a7:0x8942e13d4c057955!8m2!3d-26.5902392!4d152.9831163!16s%2Fg%2F11rhx529lx!19sChIJp5n5cKUnLgIRVXkFTD3hQok?authuser=0&hl=en&rclk=1,Hart Pool Services,5,Pool cleaning service,61480330293,hartpoolservices.com.au,Claimed,-26.5902392,152.9831163,12/11/2023 12:12
https://www.google.ca/maps/place/Hawkesbury+pools/data=!4m7!3m6!1s0x6b129f28239e03d3:0xd073b422248a914a!8m2!3d-33.5534427!4d150.6672784!16s%2Fg%2F11fk429jnm!19sChIJ0wOeIyifEmsRSpGKJCK0c9A?authuser=0&hl=en&rclk=1,Hawkesbury pools,4.8,Swimming pool contractor,61425374870,hawkesburypools.com.au,Claimed,-33.5534427,150.6672784,12/11/2023 12:12
https://www.google.ca/maps/place/Hidden+Valley+Pool+Solutions/data=!4m7!3m6!1s0x6ad76b9a50c4b88d:0xb464288323bc63a4!8m2!3d-37.0031095!4d144.5009048!16s%2Fg%2F11tk7xzj0y!19sChIJjbjEUJpr12oRpGO8I4MoZLQ?authuser=0&hl=en&rclk=1,Hidden Valley Pool Solutions,5,Pool cleaning service,61422768792,hvpoolsolutions.com.au,Claimed,-37.0031095,144.5009048,12/11/2023 12:14
https://www.google.ca/maps/place/Hills+Pool+Maintenance/data=!4m7!3m6!1s0x4a98d22069aac9f9:0x472391830dbbf6da!8m2!3d-34.8387616!4d138.854592!16s%2Fg%2F11rhp79z8w!19sChIJ-cmqaSDSmEoR2va7DYORI0c?authuser=0&hl=en&rclk=1,Hills Pool Maintenance,,Swimming pool repair service,61414856883,mirrorimagepools.com.au,Claimed,-34.8387616,138.854592,12/11/2023 12:14
https://www.google.ca/maps/place/Home+Pool+Maintenance/data=!4m7!3m6!1s0x6b12b9d70477a019:0x9f8ea8f65a590ed5!8m2!3d-33.978057!4d151.145407!16s%2Fg%2F1tftr7c3!19sChIJGaB3BNe5EmsR1Q5ZWvaojp8?authuser=0&hl=en&rclk=1,Home Pool Maintenance,4.6,Swimming pool contractor,61414909899,,Claimed,-33.978057,151.145407,12/11/2023 12:15
https://www.google.ca/maps/place/Huckel+Pools/data=!4m7!3m6!1s0x6b0f0cfbe8de610d:0x547da0fac443da14!8m2!3d-32.1555394!4d148.3989601!16s%2Fg%2F11cmh21t94!19sChIJDWHe6PsMD2sRFNpDxPqgfVQ?authuser=0&hl=en&rclk=1,Huckel Pools,,Swimming pool contractor,61434211259,,Claimed,-32.1555394,148.3989601,12/11/2023 12:18
https://www.google.ca/maps/place/Hunter+Pool+Pros/data=!4m7!3m6!1s0x6b733d156580aa5f:0xb95b0d71b0f3b1da!8m2!3d-32.8908576!4d151.5029992!16s%2Fg%2F11fcmrhqwm!19sChIJX6qAZRU9c2sR2rHzsHENW7k?authuser=0&hl=en&rclk=1,Hunter Pool Pros,,Pool cleaning service,61423652357,hunterpoolpros.com,Claimed,-32.8908576,151.5029992,12/11/2023 12:18
https://www.google.ca/maps/place/HydroTech+Pool+Care/data=!4m7!3m6!1s0x6b129987b1b3e6b9:0x8d8ff51bbb4fcbd5!8m2!3d-33.6946556!4d150.9457643!16s%2Fg%2F11h1z__4fc!19sChIJueazsYeZEmsR1ctPuxv1j40?authuser=0&hl=en&rclk=1,HydroTech Pool Care,5,Pool cleaning service,61409732293,hydrotechpoolcare.com.au,Claimed,-33.6946556,150.9457643,12/11/2023 12:19
https://www.google.ca/maps/place/I.M+Pool+Projects/data=!4m7!3m6!1s0x920206eb43ef3f1:0x275164356761f1bf!8m2!3d-33.8482439!4d150.9319747!16s%2Fg%2F11sgk8y7vz!19sChIJ8fM-tG4gIAkRv_FhZzVkUSc?authuser=0&hl=en&rclk=1,I.M Pool Projects,5,Swimming pool repair service,61423688741,,Claimed,-33.8482439,150.9319747,12/11/2023 12:19
https://www.google.ca/maps/place/I.P.S+POOL+SERVICES/data=!4m7!3m6!1s0x6b1313d771f6b079:0xaabccd1132ac5698!8m2!3d-34.5755215!4d150.7806664!16s%2Fg%2F11j3rw8tdk!19sChIJebD2cdcTE2sRmFasMhHNvKo?authuser=0&hl=en&rclk=1,I.P.S POOL SERVICES,5,Pool cleaning service,61421663183,g.page,Claimed,-34.5755215,150.7806664,12/11/2023 12:19
https://www.google.ca/maps/place/Image+Pool+Resurfacing/data=!4m7!3m6!1s0x2cc091ef3a009a9b:0x55e299179afee353!8m2!3d-12.435145!4d130.862186!16s%2Fg%2F11h234408z!19sChIJm5oAOu-RwCwRU-P-mheZ4lU?authuser=0&hl=en&rclk=1,Image Pool Resurfacing,5,Swimming pool repair service,61458909631,,Unclaimed,-12.435145,130.862186,12/11/2023 12:21
https://www.google.ca/maps/place/Impeccable+Pools/data=!4m7!3m6!1s0x6b12b80c74d467fd:0xe74833106e05dc19!8m2!3d-34.0187688!4d151.136895!16s%2Fg%2F11bw5tqk80!19sChIJ_WfUdAy4EmsRGdwFbhAzSOc?authuser=0&hl=en&rclk=1,Impeccable Pools,3.9,Swimming pool contractor,61414311361,,Claimed,-34.0187688,151.136895,12/11/2023 12:21
https://www.google.ca/maps/place/Improvement+Pools/data=!4m7!3m6!1s0x6b12c7705a6c78cb:0xca1e61c5b0c2db4e!8m2!3d-34.3643695!4d150.8968988!16s%2Fg%2F11cr_cwfm_!19sChIJy3hsWnDHEmsRTtvCsMVhHso?authuser=0&hl=en&rclk=1,Improvement Pools,5,Swimming pool contractor,61419520453,improvementpools.com.au,Claimed,-34.3643695,150.8968988,12/11/2023 12:21
https://www.google.ca/maps/place/In2+Pools+and+Spas/data=!4m7!3m6!1s0x4d7958cddc106dd7:0x4fc40260d1750839!8m2!3d-36.0644848!4d144.7321702!16s%2Fg%2F11t2fh18vl!19sChIJ120Q3M1YeU0ROQh10WACxE8?authuser=0&hl=en&rclk=1,In2 Pools and Spas,5,Swimming pool repair service,61400119104,in2poolsandspas.com.au,Claimed,-36.0644848,144.7321702,12/11/2023 12:22
https://www.google.ca/maps/place/InPools+%28Jasnip+Pty+Ltd%29/data=!4m7!3m6!1s0x6ad6f9c8ae44efe1:0x41b3d2007dde530!8m2!3d-37.9579086!4d145.0531353!16s%2Fg%2F11ll8t8q16!19sChIJ4e9Ersj51moRMOXdByA9GwQ?authuser=0&hl=en&rclk=1,InPools (Jasnip Pty Ltd),5,Swimming pool repair service,61412588522,inpools.com.au,Claimed,-37.9579086,145.0531353,12/11/2023 12:22
https://www.google.ca/maps/place/Inland+Pools/data=!4m7!3m6!1s0x6b1fad09bbdca877:0x527d4fce2ccc0fe9!8m2!3d-34.3292794!4d145.6943159!16s%2Fg%2F11ljctfwjk!19sChIJd6jcuwmtH2sR6Q_MLM5PfVI?authuser=0&hl=en&rclk=1,Inland Pools,4.9,Swimming pool repair service,61424512645,inlandpools.com.au,Claimed,-34.3292794,145.6943159,12/11/2023 12:22
https://www.google.ca/maps/place/Inlander+Plunge+Pools/data=!4m7!3m6!1s0x6b12afc4513bfce9:0xe2e429bdd9e376cb!8m2!3d-33.8341796!4d151.2238188!16s%2Fg%2F11sqj22rt6!19sChIJ6fw7UcSvEmsRy3bj2b0p5OI?authuser=0&hl=en&rclk=1,Inlander Plunge Pools,5,Swimming pool contractor,61491184670,inlander.com.au,Claimed,-33.8341796,151.2238188,12/11/2023 12:23
https://www.google.ca/maps/place/Insane+Pool+%26Spa+Services/data=!4m7!3m6!1s0x6b12bf1c9ef1c591:0x53fc5ede90db2a4c!8m2!3d-33.9056744!4d150.8467894!16s%2Fg%2F11fkl8nj_7!19sChIJkcXxnhy_EmsRTCrbkN5e_FM?authuser=0&hl=en&rclk=1,Insane Pool &Spa Services,,Swimming pool repair service,61451794441,,Claimed,-33.9056744,150.8467894,12/11/2023 12:23
https://www.google.ca/maps/place/Integra+Pool+Service/data=!4m7!3m6!1s0x8b581f633aa3de7d:0x76a0a2fcefbefa75!8m2!3d-32.3783006!4d151.1813865!16s%2Fg%2F11rnb2bxkv!19sChIJfd6jOmMfWIsRdfq-7_yioHY?authuser=0&hl=en&rclk=1,Integra Pool Service,5,Pool cleaning service,61466632036,integrapoolservice.com.au,Claimed,-32.3783006,151.1813865,12/11/2023 12:27
https://www.google.ca/maps/place/Integrity+Pool+Services+and+Pool+Fencing+Inspections/data=!4m7!3m6!1s0x6ad62f3000479227:0x52eac22c3791db43!8m2!3d-37.5279002!4d145.4292942!16s%2Fg%2F11g9f0pjc9!19sChIJJ5JHADAv1moRQ9uRNyzC6lI?authuser=0&hl=en&rclk=1,Integrity Pool Services and Pool Fencing Inspections,5,Swimming pool repair service,61488973708,poolservicing.com.au,Claimed,-37.5279002,145.4292942,12/11/2023 12:27
https://www.google.ca/maps/place/Interlink+Pools+%26+Landscapes+-+Landscape+Design+%26+Construction+Balgowlah/data=!4m7!3m6!1s0x6b12ab54721144bd:0x99289132dd581351!8m2!3d-33.7961777!4d151.25325!16s%2Fg%2F11f70__6xs!19sChIJvUQRclSrEmsRURNY3TKRKJk?authuser=0&hl=en&rclk=1,Interlink Pools & Landscapes - Landscape Design & Construction Balgowlah,5,Landscape designer,61402439820,,Claimed,-33.7961777,151.25325,12/11/2023 12:28
https://www.google.ca/maps/place/Inui+Pool+and+Spa/data=!4m7!3m6!1s0x6b1295a9e7305e23:0x2baca142753a3f7b!8m2!3d-33.936124!4d150.9144002!16s%2Fg%2F11n6ykywh4!19sChIJI14w56mVEmsRez86dUKhrCs?authuser=0&hl=en&rclk=1,Inui Pool and Spa,4,Swimming pool supply store,61412582335,,Claimed,-33.936124,150.9144002,12/11/2023 12:28
https://www.google.ca/maps/place/Irresistible+Pools+%26+Spas/data=!4m7!3m6!1s0x6b1283fcdbea22d7:0xa500dd5c60b59cea!8m2!3d-33.6616221!4d150.6770885!16s%2Fg%2F11ck88zs5_!19sChIJ1yLq2_yDEmsR6py1YFzdAKU?authuser=0&hl=en&rclk=1,Irresistible Pools & Spas,5,Swimming pool contractor,61412313561,irresistiblepools.com.au,Claimed,-33.6616221,150.6770885,12/11/2023 12:28
https://www.google.ca/maps/place/JB+Complete+Pool+Care/data=!4m7!3m6!1s0x6ad647a1d56e6f53:0xd386baf6ac26184f!8m2!3d-37.7830306!4d145.1224914!16s%2Fg%2F11gzrpsg23!19sChIJU29u1aFH1moRTxgmrPa6htM?authuser=0&hl=en&rclk=1,JB Complete Pool Care,4.9,Swimming pool repair service,61410136250,jbcompletepoolcare.com.au,Claimed,-37.7830306,145.1224914,12/11/2023 12:29
https://www.google.ca/maps/place/JB+Pools/data=!4m7!3m6!1s0x6ad635e98e022d2f:0xf7fd077ae4a13a2b!8m2!3d-37.6367455!4d145.1980898!16s%2Fg%2F11fn6vsw_k!19sChIJLy0Cjuk11moRKzqh5HoH_fc?authuser=0&hl=en&rclk=1,JB Pools,4.8,Swimming pool repair service,61408596194,facebook.com,Claimed,-37.6367455,145.1980898,12/11/2023 12:32
https://www.google.ca/maps/place/JD%27s+Pool+Care/data=!4m7!3m6!1s0x2a32818aea94489b:0x355dd43452038eb8!8m2!3d-32.3523225!4d115.7951462!16s%2Fg%2F11gr5xjv7y!19sChIJm0iU6oqBMioRuI4DUjTUXTU?authuser=0&hl=en&rclk=1,JD's Pool Care,4.9,Swimming pool repair service,61433468266,jds-pool-care.business.site,Claimed,-32.3523225,115.7951462,12/11/2023 12:32
https://www.google.ca/maps/place/JDO+Pools/data=!4m7!3m6!1s0x8394a3535abf7e0b:0xbebc269b83fb1dd8!8m2!3d-33.7372909!4d151.2018208!16s%2Fg%2F11rx248njs!19sChIJC36_WlOjlIMR2B37g5smvL4?authuser=0&hl=en&rclk=1,JDO Pools,5,Pool cleaning service,61434194182,jdopools.com.au,Claimed,-33.7372909,151.2018208,12/11/2023 12:32
https://www.google.ca/maps/place/JS+Pools/data=!4m7!3m6!1s0x6b16354ee2bd65c7:0x51c99782ff5b050f!8m2!3d-35.4432697!4d149.1125504!16s%2Fg%2F1tscp4zc!19sChIJx2W94k41FmsRDwVb_4KXyVE?authuser=0&hl=en&rclk=1,JS Pools,2.4,Swimming pool supply store,61402960655,jspools.com.au,Unclaimed,-35.4432697,149.1125504,12/11/2023 12:33
https://www.google.ca/maps/place/Jason%27s+Pool+Services/data=!4m7!3m6!1s0x6b12a9fa87c1d02d:0x4f51e833f5980ad5!8m2!3d-33.7746927!4d151.0772884!16s%2Fg%2F11b_3h4rf4!19sChIJLdDBh_qpEmsR1QqY9TPoUU8?authuser=0&hl=en&rclk=1,Jason's Pool Services,5,Pool cleaning service,61450050785,jasonspoolservices.com.au,Claimed,-33.7746927,151.0772884,12/11/2023 12:34
https://www.google.ca/maps/place/Jeliha+pool+solutions/data=!4m7!3m6!1s0x6ad7ccfdec3b2757:0xd2f0ab2f7d8743c8!8m2!3d-36.5895056!4d145.4691788!16s%2Fg%2F11cp7fz9fq!19sChIJVyc77P3M12oRyEOHfS-r8NI?authuser=0&hl=en&rclk=1,Jeliha pool solutions,5,Swimming pool supply store,61429589717,jelihapoolsolutions.com.au,Claimed,-36.5895056,145.4691788,12/11/2023 12:34
https://www.google.ca/maps/place/Jim%27s+Pool+Care+Ellenbrook/data=!4m7!3m6!1s0x2bd2a799cc498bc5:0x8005ce7f9e917ce1!8m2!3d-31.6208266!4d116.024564!16s%2Fg%2F11lh5pfv1m!19sChIJxYtJzJmn0isR4XyRnn_OBYA?authuser=0&hl=en&rclk=1,Jim's Pool Care Ellenbrook,,Pool cleaning service,61417996495,,Claimed,-31.6208266,116.024564,12/11/2023 12:57
https://www.google.ca/maps/place/Jim%27s+Pool+Care+Shellharbour/data=!4m7!3m6!1s0x6b13133966ee4861:0xd8f193365e37ba16!8m2!3d-34.5950793!4d150.850805!16s%2Fg%2F11n68bws0_!19sChIJYUjuZjkTE2sRFro3XjaT8dg?authuser=0&hl=en&rclk=1,Jim's Pool Care Shellharbour,5,Swimming pool,61413890190,jims-pool-care-shellharbour.business.site,Claimed,-34.5950793,150.850805,12/11/2023 13:00
https://www.google.ca/maps/place/John+Brennan+Pool+%26+Spa+Services/data=!4m7!3m6!1s0x6b72d1320d739c4f:0x666bff33e4069023!8m2!3d-33.2645696!4d151.4252856!16s%2Fg%2F11j3rhml9p!19sChIJT5xzDTLRcmsRI5AG5DP_a2Y?authuser=0&hl=en&rclk=1,John Brennan Pool & Spa Services,5,Pool cleaning service,61491180575,johnbrennanpools.com.au,Claimed,-33.2645696,151.4252856,12/11/2023 13:04
https://www.google.ca/maps/place/Kalamunda+Pool+Service/data=!4m7!3m6!1s0x2a32c08bbd48cf51:0x7f4a071a1cbe359a!8m2!3d-32.0400639!4d115.9865072!16s%2Fg%2F11b8t5t522!19sChIJUc9IvYvAMioRmjW-HBoHSn8?authuser=0&hl=en&rclk=1,Kalamunda Pool Service,5,Swimming pool repair service,61488333022,kalamundapoolservice.com,Claimed,-32.0400639,115.9865072,12/11/2023 13:06
"https://www.google.ca/maps/place/King+of+Green+Lawn,+Garden+%26+Pool+Care/data=!4m7!3m6!1s0x6b12b9789344cf15:0x5530b12720c4b56d!8m2!3d-33.996566!4d151.0218869!16s%2Fg%2F11gl0x99tq!19sChIJFc9Ek3i5EmsRbbXEICexMFU?authuser=0&hl=en&rclk=1","King of Green Lawn, Garden & Pool Care",,Lawn care service,61499720551,kingofgreen.com.au,Claimed,-33.996566,151.0218869,12/11/2023 13:09
https://www.google.ca/maps/place/King+of+Pools/data=!4m7!3m6!1s0x85e2580b0176a9c9:0xef266b47a4018f14!8m2!3d-37.8745089!4d147.2850163!16s%2Fg%2F11nw_h_0cl!19sChIJyal2AQtY4oURFI8BpEdrJu8?authuser=0&hl=en&rclk=1,King of Pools,5,Swimming pool repair service,61455308448,kingofpools.com.au,Claimed,-37.8745089,147.2850163,12/11/2023 13:09
https://www.google.ca/maps/place/Knox+Pools+and+Spas/data=!4m7!3m6!1s0x6ad63b89e7377237:0x34b1884f3bc535fe!8m2!3d-37.7827008!4d145.2168046!16s%2Fg%2F11r92j2lg!19sChIJN3I354k71moR_jXFO0-IsTQ?authuser=0&hl=en&rclk=1,Knox Pools and Spas,4,Swimming pool repair service,61407810603,knoxpoolsandspas.com.au,Claimed,-37.7827008,145.2168046,12/11/2023 13:12
https://www.google.ca/maps/place/Lakes+Poolside/data=!4m7!3m6!1s0x6b25601340dfd673:0x48dbddafaca771dd!8m2!3d-38.1940197!4d146.5336107!16s%2Fg%2F1td20f7k!19sChIJc9bfQBNgJWsR3XGnrK_d20g?authuser=0&hl=en&rclk=1,Lakes Poolside,4.7,Swimming pool contractor,61431943675,lakespoolside.com.au,Unclaimed,-38.1940197,146.5336107,12/11/2023 13:14
https://www.google.ca/maps/place/Liam%27s+Pool+Services/data=!4m7!3m6!1s0x89627779314e6fa3:0x1e3ecba98b1923bf!8m2!3d-32.0524284!4d152.5124328!16s%2Fg%2F11sp7k_cx3!19sChIJo29OMXl3YokRvyMZi6nLPh4?authuser=0&hl=en&rclk=1,Liam's Pool Services,5,Pool cleaning service,61422109202,localsearch.com.au,Claimed,-32.0524284,152.5124328,12/11/2023 13:16
https://www.google.ca/maps/place/Lifesaving+Pool+Barrier+Inspections/data=!4m7!3m6!1s0x2aceb44f9220722d:0xb4f3ab5b3bb89d2f!8m2!3d-38.1647778!4d145.0409331!16s%2Fg%2F11rpdhq4rn!19sChIJLXIgkk-0zioRL524O1ur87Q?authuser=0&hl=en&rclk=1,Lifesaving Pool Barrier Inspections,,Swimming pool repair service,61418216139,lifesavinginspections.com.au,Claimed,-38.1647778,145.0409331,12/11/2023 13:17
https://www.google.ca/maps/place/Liner+Specialists+Australia/data=!4m7!3m6!1s0x4d78c6f084c4b337:0x803aadde55cab53!8m2!3d-37.9508423!4d145.318301!16s%2Fg%2F11nnw2_frd!19sChIJN7PEhPDGeE0RU6tc5d2qAwg?authuser=0&hl=en&rclk=1,Liner Specialists Australia,5,Swimming pool contractor,61412547850,linerspecialists.com.au,Claimed,-37.9508423,145.318301,12/11/2023 13:17
https://www.google.ca/maps/place/Local+Pool+Inspections+%28Noosa%29/data=!4m7!3m6!1s0x6b9365ae02d78841:0xab398811e48c626d!8m2!3d-26.6064825!4d153.0741567!16s%2Fg%2F11n5msp_57!19sChIJQYjXAq5lk2sRbWKM5BGIOas?authuser=0&hl=en&rclk=1,Local Pool Inspections (Noosa),5,Swimming pool contractor,61404821836,lpinoosa.com.au,Claimed,-26.6064825,153.0741567,12/11/2023 13:17
https://www.google.ca/maps/place/Local+Pool+Service+%26+Maintenance/data=!4m7!3m6!1s0x6b72c9ec78bbd813:0xd76c08ed93eee704!8m2!3d-33.346647!4d151.4424981!16s%2Fg%2F11k7994wyj!19sChIJE9i7eOzJcmsRBOfuk-0IbNc?authuser=0&hl=en&rclk=1,Local Pool Service & Maintenance,5,Swimming pool contractor,61422945463,,Claimed,-33.346647,151.4424981,12/11/2023 13:18
https://www.google.ca/maps/place/Long+Reef+Pools/data=!4m7!3m6!1s0x6908f3df93a134d5:0xb21cce7910326bfd!8m2!3d-33.7010384!4d151.2850528!16s%2Fg%2F11p0gqvchz!19sChIJ1TShk9_zCGkR_WsyEHnOHLI?authuser=0&hl=en&rclk=1,Long Reef Pools,,Pool cleaning service,61403218210,longreefpools.com,Claimed,-33.7010384,151.2850528,12/11/2023 13:18
https://www.google.ca/maps/place/Luxe+Life+Pools/data=!4m7!3m6!1s0x6b12f1a5187d81fb:0x603c9e564041f5d!8m2!3d-34.039749!4d150.731674!16s%2Fg%2F11rhkfk900!19sChIJ-4F9GKXxEmsRXR8EZOXJAwY?authuser=0&hl=en&rclk=1,Luxe Life Pools,5,Swimming pool contractor,61405461430,luxelifepools.com.au,Unclaimed,-34.039749,150.731674,12/11/2023 13:19
https://www.google.ca/maps/place/Luxe+Pool+Maintenance+and+Equipment+Design/data=!4m7!3m6!1s0x6b12b12438b241cd:0x90a474c3f313723c!8m2!3d-33.9214754!4d151.1942838!16s%2Fg%2F11s4x432v5!19sChIJzUGyOCSxEmsRPHIT88N0pJA?authuser=0&hl=en&rclk=1,Luxe Pool Maintenance and Equipment Design,5,Contractor,61479141993,theluxepool.com.au,Claimed,-33.9214754,151.1942838,12/11/2023 13:19
https://www.google.ca/maps/place/Luxe+Pools/data=!4m7!3m6!1s0x6b72db8ec593c425:0x7034b7b340a2537d!8m2!3d-33.2625176!4d151.5458072!16s%2Fg%2F11rg1phdfc!19sChIJJcSTxY7bcmsRfVOiQLO3NHA?authuser=0&hl=en&rclk=1,Luxe Pools,5,Swimming pool contractor,61408666326,luxepools.com.au,Claimed,-33.2625176,151.5458072,12/11/2023 13:20
https://www.google.ca/maps/place/Magical+Pools+%26+Spas/data=!4m7!3m6!1s0x6b12bbce9ef135af:0xfdf4e23ae9590f16!8m2!3d-33.871326!4d151.0854145!16s%2Fg%2F11fctxfpnh!19sChIJrzXxns67EmsRFg9Z6Tri9P0?authuser=0&hl=en&rclk=1,Magical Pools & Spas,5,Swimming pool contractor,61407035063,magicalpools.com.au,Claimed,-33.871326,151.0854145,12/11/2023 13:22
https://www.google.ca/maps/place/Maharlika+Pool+Resurfacing/data=!4m7!3m6!1s0x2cc0917b097adedd:0x854b3384d9ec66ba!8m2!3d-12.4558536!4d130.8367489!16s%2Fg%2F11sr88pq85!19sChIJ3d56CXuRwCwRumbs2YQzS4U?authuser=0&hl=en&rclk=1,Maharlika Pool Resurfacing,5,Swimming pool repair service,61426624856,maharlikapoolresurfacing.com,Claimed,-12.4558536,130.8367489,12/11/2023 13:22
https://www.google.ca/maps/place/Malthouse+Pool+%26+Spa+Inspections/data=!4m7!3m6!1s0x6ab0d87e1125ff39:0x1b4f47abfdd3ba40!8m2!3d-35.000767!4d138.6111598!16s%2Fg%2F11f57sn29d!19sChIJOf8lEX7YsGoRQLrT_atHTxs?authuser=0&hl=en&rclk=1,Malthouse Pool & Spa Inspections,4.8,Building inspector,61421992212,malthousepoolinspections.com.au,Claimed,-35.000767,138.6111598,12/11/2023 13:23
https://www.google.ca/maps/place/Man+Vs+Pool/data=!4m7!3m6!1s0x46fa237b874b0f03:0x6a3002b9ae33065d!8m2!3d-33.2050183!4d151.4073988!16s%2Fg%2F11rxvl9gtv!19sChIJAw9Lh3sj-kYRXQYzrrkCMGo?authuser=0&hl=en&rclk=1,Man Vs Pool,5,Pool cleaning service,61413875114,manvspool.com.au,Claimed,-33.2050183,151.4073988,12/11/2023 13:23
https://www.google.ca/maps/place/Marlon+Pools+Finishing+and+Services/data=!4m7!3m6!1s0x6b129697115c2811:0x4f89556114b37f83!8m2!3d-33.875348!4d150.8927456!16s%2Fg%2F1tdbfl0l!19sChIJEShcEZeWEmsRg3-zFGFViU8?authuser=0&hl=en&rclk=1,Marlon Pools Finishing and Services,4.9,Swimming pool contractor,61406824745,,Claimed,-33.875348,150.8927456,12/11/2023 13:24
https://www.google.ca/maps/place/Marriott%E2%80%99s+Pool+Services/data=!4m7!3m6!1s0x2b3219244d413739:0x3a41651391aed52f!8m2!3d-32.205415!4d136.1073692!16s%2Fg%2F11fdyq4kst!19sChIJOTdBTSQZMisRL9WukRNlQTo?authuser=0&hl=en&rclk=1,Marriotts Pool Services,,Swimming pool repair service,61434698288,,Claimed,-32.205415,136.1073692,12/11/2023 13:24
https://www.google.ca/maps/place/Melbourne+Pool+Care/data=!4m7!3m6!1s0x6ad63bc30588a565:0xedb27f3bc4fbf075!8m2!3d-37.8255943!4d145.2821813!16s%2Fg%2F11fn7kv5g3!19sChIJZaWIBcM71moRdfD7xDt_su0?authuser=0&hl=en&rclk=1,Melbourne Pool Care,5,Pool cleaning service,61409329353,facebook.com,Claimed,-37.8255943,145.2821813,12/11/2023 13:26
https://www.google.ca/maps/place/Merimbula+Pool+Co./data=!4m7!3m6!1s0x2a2d027349f615e7:0x248304be6cc8ac5d!8m2!3d-36.8533679!4d149.9299332!16s%2Fg%2F11s88b523p!19sChIJ5xX2SXMCLSoRXazIbL4EgyQ?authuser=0&hl=en&rclk=1,Merimbula Pool Co.,5,Swimming pool contractor,61409790113,merimbulapools.com.au,Claimed,-36.8533679,149.9299332,12/11/2023 13:26
https://www.google.ca/maps/place/Mermaid+Pool+Safety/data=!4m7!3m6!1s0x6b93f0a2432c0fa5:0xa3d6d3ac1e20f26f!8m2!3d-27.1785555!4d152.9423593!16s%2Fg%2F11clydh8cg!19sChIJpQ8sQ6Lwk2sRb_IgHqzT1qM?authuser=0&hl=en&rclk=1,Mermaid Pool Safety,4.9,Building inspector,61427342300,,Unclaimed,-27.1785555,152.9423593,12/11/2023 13:26
https://www.google.ca/maps/place/Metro+Pool+Care/data=!4m7!3m6!1s0x2a259e05cba9abd:0x641fe6c8ccb91cb5!8m2!3d-35.7241058!4d143.9476966!16s%2Fg%2F11p187rm3j!19sChIJvZq6XOBZogIRtRy5zMjmH2Q?authuser=0&hl=en&rclk=1,Metro Pool Care,5,,61432308403,,Claimed,-35.7241058,143.9476966,12/11/2023 13:27
https://www.google.ca/maps/place/Michael%27s+Pool+Services/data=!4m7!3m6!1s0x6b0d556802902e25:0x1da5625a1c72b283!8m2!3d-33.7443118!4d151.296987!16s%2Fg%2F11lxmf2jtl!19sChIJJS6QAmhVDWsRg7JyHFpipR0?authuser=0&hl=en&rclk=1,Michael's Pool Services,5,Swimming pool contractor,61431665371,,Unclaimed,-33.7443118,151.296987,12/11/2023 13:27
https://www.google.ca/maps/place/Mick%27s+Pool+Care/data=!4m7!3m6!1s0x221b6e0fe550d51f:0x61cd9f10d90fc603!8m2!3d-32.6741524!4d151.3599745!16s%2Fg%2F11t9_grznl!19sChIJH9VQ5Q9uGyIRA8YP2RCfzWE?authuser=0&hl=en&rclk=1,Mick's Pool Care,5,Pool cleaning service,61424979658,mickspoolcare.com.au,Claimed,-32.6741524,151.3599745,12/11/2023 13:27
https://www.google.ca/maps/place/Miller+Pool+%26+Spa+Service+%2F+Conquest+Pools+Swan+Hill/data=!4m7!3m6!1s0x6adb859a4c103293:0xab7a9824435dc5ef!8m2!3d-35.3328619!4d143.5359931!16s%2Fg%2F11bbrgf_vd!19sChIJkzIQTJqF22oR78VdQySYeqs?authuser=0&hl=en&rclk=1,Miller Pool & Spa Service / Conquest Pools Swan Hill,5,Swimming pool repair service,61488766510,conquestpools.com.au,Claimed,-35.3328619,143.5359931,12/11/2023 13:28
https://www.google.ca/maps/place/Mirapool/data=!4m7!3m6!1s0x6ab0ab267be7831d:0x89dcb570efd5faa8!8m2!3d-34.8097222!4d138.7343912!16s%2Fg%2F11fmdxfwx3!19sChIJHYPneyarsGoRqPrV73C13Ik?authuser=0&hl=en&rclk=1,Mirapool,5,Pool cleaning service,61430830604,mirapool.com.au,Claimed,-34.8097222,138.7343912,12/11/2023 13:28
https://www.google.ca/maps/place/Miss+Dolphin+Pool+Inspections/data=!4m7!3m6!1s0x6b12a1eda27e1f4f:0xa67d2d20b40593d9!8m2!3d-33.7111451!4d150.9550731!16s%2Fg%2F11tc9xxbnw!19sChIJTx9-ou2hEmsR2ZMFtCAtfaY?authuser=0&hl=en&rclk=1,Miss Dolphin Pool Inspections,1,Swimming pool contractor,61424165168,,Unclaimed,-33.7111451,150.9550731,12/11/2023 13:28
https://www.google.ca/maps/place/Mobi+Pool/data=!4m7!3m6!1s0x537980bf8880a3f:0xdffdb707de422137!8m2!3d-32.4659758!4d115.7387236!16s%2Fg%2F11sq47wx10!19sChIJPwqI-AuYNwURNyFC3ge3_d8?authuser=0&hl=en&rclk=1,Mobi Pool,,Pool cleaning service,61405535239,facebook.com,Claimed,-32.4659758,115.7387236,12/11/2023 13:29
https://www.google.ca/maps/place/Mobile+Pool+Solutions/data=!4m7!3m6!1s0x6b12a7874694c007:0xc45079d0450b4478!8m2!3d-33.6959131!4d151.1140621!16s%2Fg%2F12m943qh3!19sChIJB8CURoenEmsReEQLRdB5UMQ?authuser=0&hl=en&rclk=1,Mobile Pool Solutions,4.6,Swimming pool repair service,61414669946,,Claimed,-33.6959131,151.1140621,12/11/2023 13:29
https://www.google.ca/maps/place/Mobility+Pool+Co/data=!4m7!3m6!1s0x2cc09368d815e3a3:0x507d7494e7c14e1e!8m2!3d-12.4321676!4d130.854443!16s%2Fg%2F11px9r51h2!19sChIJo-MV2GiTwCwRHk7B55R0fVA?authuser=0&hl=en&rclk=1,Mobility Pool Co,5,Swimming pool supply store,61455859982,mobilitypoolco.com.au,Unclaimed,-12.4321676,130.854443,12/11/2023 13:29
https://www.google.ca/maps/place/Mosman+Pool+Care/data=!4m7!3m6!1s0xa3f4452c2dea521:0x2c44311439138236!8m2!3d-33.8283336!4d151.2278002!16s%2Fg%2F11k9dj54k4!19sChIJIaXewlJEPwoRNoITORQxRCw?authuser=0&hl=en&rclk=1,Mosman Pool Care,,Pool cleaning service,61488709449,mosmanpoolcare.au,Claimed,-33.8283336,151.2278002,12/11/2023 13:30
https://www.google.ca/maps/place/Mr+Dolphin/data=!4m7!3m6!1s0x6b12bd3b0f748cd3:0xd99be304f1b937a5!8m2!3d-33.7543856!4d151.236155!16s%2Fg%2F11fj_rmhc6!19sChIJ04x0Dzu9EmsRpTe58QTjm9k?authuser=0&hl=en&rclk=1,Mr Dolphin,5,Swimming pool supply store,61478112989,mrdolphin.com.au,Claimed,-33.7543856,151.236155,12/11/2023 13:32
https://www.google.ca/maps/place/Mr+Pebbles+Pool+Renovations/data=!4m7!3m6!1s0x6b12bdf48e1f3437:0x87b6d098d5be3171!8m2!3d-33.8237817!4d150.9848977!16s%2Fg%2F11h05661jk!19sChIJNzQfjvS9EmsRcTG-1ZjQtoc?authuser=0&hl=en&rclk=1,Mr Pebbles Pool Renovations,5,Swimming pool repair service,61405646782,mrpebbles.com.au,Claimed,-33.8237817,150.9848977,12/11/2023 13:33
https://www.google.ca/maps/place/NSA+Pools/data=!4m7!3m6!1s0xdb0d5d26a444903:0x162a38ccffa94f2f!8m2!3d-12.4717814!4d130.9967925!16s%2Fg%2F11ny4p8cz8!19sChIJA0lEatLVsA0RL0-p_8w4KhY?authuser=0&hl=en&rclk=1,NSA Pools,5,Swimming pool contractor,61456381021,nsapools.com.au,Claimed,-12.4717814,130.9967925,12/11/2023 13:36
https://www.google.ca/maps/place/Nautical+Pools/data=!4m7!3m6!1s0x6b0f71aaa489c219:0xdc949df79b18a956!8m2!3d-32.2446608!4d148.6043049!16s%2Fg%2F1tl4d5cx!19sChIJGcKJpKpxD2sRVqkYm_edlNw?authuser=0&hl=en&rclk=1,Nautical Pools,5,Swimming pool contractor,61408033229,nauticalpools.com.au,Claimed,-32.2446608,148.6043049,12/11/2023 13:38
https://www.google.ca/maps/place/New+Finish+Pools/data=!4m7!3m6!1s0x6b102cede342f2c9:0x12f1ceb1b918d805!8m2!3d-32.83115!4d150.0523617!16s%2Fg%2F11bvvy16j5!19sChIJyfJC4-0sEGsRBdgYubHO8RI?authuser=0&hl=en&rclk=1,New Finish Pools,4,Swimming pool repair service,61428600277,newfinishpools.com.au,Claimed,-32.83115,150.0523617,12/11/2023 13:39
https://www.google.ca/maps/place/Newcastle+Pool+Repairs/data=!4m7!3m6!1s0xaae558f302f23fc1:0x7aa5adec04b309a8!8m2!3d-32.7500309!4d151.7601522!16s%2Fg%2F11sr769_4j!19sChIJwT_yAvNY5aoRqAmzBOytpXo?authuser=0&hl=en&rclk=1,Newcastle Pool Repairs,4.1,Swimming pool repair service,61448050121,newcastle-pool-repairs.business.site,Claimed,-32.7500309,151.7601522,12/11/2023 13:39
"https://www.google.ca/maps/place/Nexus+Pool+Services+-+Sydney%27s+Premier+Pool+Maintenance,+Repairs+%26+Renovations/data=!4m7!3m6!1s0x6d2f9d8a3a8b1fe1:0x98d011eeb02e77f5!8m2!3d-33.8684348!4d150.9024764!16s%2Fg%2F11kj8w1n0r!19sChIJ4R-LOoqdL20R9XcusO4R0Jg?authuser=0&hl=en&rclk=1","Nexus Pool Services - Sydney's Premier Pool Maintenance, Repairs & Renovations",5,Swimming pool repair service,61420316896,nexuspoolservices.com.au,Claimed,-33.8684348,150.9024764,12/11/2023 13:40
https://www.google.ca/maps/place/Nightcliff+Swimming+Pool/data=!4m7!3m6!1s0x2cc0933cc8809027:0x98ae39255973b2fa!8m2!3d-12.376982!4d130.8485433!16s%2Fg%2F1w604c_5!19sChIJJ5CAyDyTwCwR-rJzWSU5rpg?authuser=0&hl=en&rclk=1,Nightcliff Swimming Pool,4.5,Public swimming pool,61499931753,darwin.nt.gov.au,Claimed,-12.376982,130.8485433,12/11/2023 13:40
https://www.google.ca/maps/place/Northeast+Poolcare/data=!4m7!3m6!1s0x6ab0b36859411c2d:0xdff2cb42e1af86ff!8m2!3d-34.9816918!4d138.7420244!16s%2Fg%2F11f5bwx6mq!19sChIJLRxBWWizsGoR_4av4ULL8t8?authuser=0&hl=en&rclk=1,Northeast Poolcare,5,Swimming pool contractor,61433030841,northeastpoolcare.com.au,Claimed,-34.9816918,138.7420244,12/11/2023 13:41
https://www.google.ca/maps/place/Nova+Pool+Renovations/data=!4m7!3m6!1s0x6b72c9e684928ce5:0x722c5e04dff31af4!8m2!3d-33.388224!4d151.450359!16s%2Fg%2F11fk8h_937!19sChIJ5YyShObJcmsR9Brz3wReLHI?authuser=0&hl=en&rclk=1,Nova Pool Renovations,5,Swimming pool repair service,61409652802,novapoolrenovations.com.au,Unclaimed,-33.388224,151.450359,12/11/2023 13:42
https://www.google.ca/maps/place/Nulook+Pools/data=!4m7!3m6!1s0x6b17ae084414de6d:0x15aeab78d5f7637c!8m2!3d-35.2090139!4d149.0722698!16s%2Fg%2F1hg4sws52!19sChIJbd4URAiuF2sRfGP31XirrhU?authuser=0&hl=en&rclk=1,Nulook Pools,5,Swimming pool contractor,61411055329,nulookpools.com.au,Claimed,-35.2090139,149.0722698,12/11/2023 13:42
https://www.google.ca/maps/place/Nxtgen+Pool+Maintenance/data=!4m7!3m6!1s0x263c1f383d6a0aad:0x302ec53e4d32ce6a!8m2!3d-37.9725665!4d145.0531353!16s%2Fg%2F11spmz8rqt!19sChIJrQpqPTgfPCYRas4yTT7FLjA?authuser=0&hl=en&rclk=1,Nxtgen Pool Maintenance,5,Swimming pool contractor,61434571807,nxtgenpoolmaintenance.com.au,Claimed,-37.9725665,145.0531353,12/11/2023 13:42
https://www.google.ca/maps/place/OZEPOOL+Discount+Pool+Equipment/data=!4m7!3m6!1s0x6b12a54d563dbbb9:0x7c4ccb82bc8a78b0!8m2!3d-33.4297504!4d151.3765749!16s%2Fg%2F11h051xy3!19sChIJubs9Vk2lEmsRsHiKvILLTHw?authuser=0&hl=en&rclk=1,OZEPOOL Discount Pool Equipment,5,Swimming pool supply store,61431047179,perfectpool.au,Claimed,-33.4297504,151.3765749,12/11/2023 13:43
https://www.google.ca/maps/place/Oakford+Pool+Supplies+and+Service/data=!4m7!3m6!1s0x2a3291c4428b3c89:0xb2bf43e637e9d532!8m2!3d-32.047147!4d115.9492711!16s%2Fg%2F11gy3mr4tx!19sChIJiTyLQsSRMioRMtXpN-ZDv7I?authuser=0&hl=en&rclk=1,Oakford Pool Supplies and Service,5,Swimming pool repair service,61429002524,oakford-pool-supplies-and-service.business.site,Claimed,-32.047147,115.9492711,12/11/2023 13:43
https://www.google.ca/maps/place/Oasis+Pool+%26+Spa+Services/data=!4m7!3m6!1s0x263f90c644e5a475:0xe6ac70bc993df8!8m2!3d-35.2632892!4d150.4734754!16s%2Fg%2F11p16bfs9v!19sChIJdaTlRMaQPyYR-D2ZvHCs5gA?authuser=0&hl=en&rclk=1,Oasis Pool & Spa Services,,Pool cleaning service,61466330384,oasispoolandspaservices.com,Claimed,-35.2632892,150.4734754,12/11/2023 13:44
https://www.google.ca/maps/place/Oceanic+Pools/data=!4m7!3m6!1s0x2a32bf85e1ba92e9:0x25ba182d23e3d69a!8m2!3d-32.0400639!4d115.9615356!16s%2Fg%2F11c0pj7t10!19sChIJ6ZK64YW_MioRmtbjIy0YuiU?authuser=0&hl=en&rclk=1,Oceanic Pools,4.9,Swimming pool repair service,61405170011,oceanicpools.com.au,Claimed,-32.0400639,115.9615356,12/11/2023 13:44
https://www.google.ca/maps/place/Octopus+Pool+Care/data=!4m7!3m6!1s0x6e75952d3ec0f26b:0xf0cc748b1dfc1d96!8m2!3d-33.8482439!4d150.9319747!16s%2Fg%2F11krb85nnp!19sChIJa_LAPi2VdW4Rlh38HYt0zPA?authuser=0&hl=en&rclk=1,Octopus Pool Care,,Pool cleaning service,61466668269,,Claimed,-33.8482439,150.9319747,12/11/2023 13:44
https://www.google.ca/maps/place/Optimum+Pool+%26+Spa+Services+-+Pool+Cleaning+%26+Maintenance/data=!4m7!3m6!1s0x6b12941e01a4247b:0x5f0dcb9fa218e28!8m2!3d-33.9221482!4d150.8234412!16s%2Fg%2F11clyh5gc2!19sChIJeySkAR6UEmsRKI4h-rnc8AU?authuser=0&hl=en&rclk=1,Optimum Pool & Spa Services - Pool Cleaning & Maintenance,5,Swimming pool contractor,61481132756,optimumservice.com.au,Claimed,-33.9221482,150.8234412,12/11/2023 13:46
https://www.google.ca/maps/place/Outback+Pool+Cleaning+Darwin+NT/data=!4m7!3m6!1s0x62a2d5b914d89bb:0xc7c5299f8e2d6b86!8m2!3d-12.4717814!4d131.0289799!16s%2Fg%2F11rk03r9zw!19sChIJu4lNkVstKgYRhmstjp8pxcc?authuser=0&hl=en&rclk=1,Outback Pool Cleaning Darwin NT,5,Pool cleaning service,61477761224,outbackpoolsnt.com.au,Claimed,-12.4717814,131.0289799,12/11/2023 13:47
https://www.google.ca/maps/place/Oxygem+Pool+Care/data=!4m7!3m6!1s0x6b12b93958a49ef7:0x819c7c44acca03a7!8m2!3d-34.0024554!4d151.1050471!16s%2Fg%2F1tdw86gz!19sChIJ956kWDm5EmsRpwPKrER8nIE?authuser=0&hl=en&rclk=1,Oxygem Pool Care,4.9,Swimming pool contractor,61402386280,oxygempoolcare.com.au,Claimed,-34.0024554,151.1050471,12/11/2023 13:47
https://www.google.ca/maps/place/PC+Pool+Care+-+Redlands/data=!4m7!3m6!1s0x6b9169367d545057:0x9dbcb8994b4307aa!8m2!3d-27.5649732!4d153.1914258!16s%2Fg%2F11h4mrr8kk!19sChIJV1BUfTZpkWsRqgdDS5m4vJ0?authuser=0&hl=en&rclk=1,PC Pool Care - Redlands,5,Pool cleaning service,61406317579,pcpoolcare.com.au,Claimed,-27.5649732,153.1914258,12/11/2023 13:48
https://www.google.ca/maps/place/PK%27s+Pool+Care/data=!4m7!3m6!1s0x6b0a9f36ffa2d99f:0xaab11d6b8831d7ea!8m2!3d-30.9660872!4d150.9905802!16s%2Fg%2F11gjm3lgk_!19sChIJn9mi_zafCmsR6tcxiGsdsao?authuser=0&hl=en&rclk=1,PK's Pool Care,5,Pool cleaning service,61407793792,pkspoolcare.com.au,Claimed,-30.9660872,150.9905802,12/11/2023 13:49
